[
  {
    "id": "586ebe8a2c66dc67e200315d",
    "name": "PETWORTH STREET",
    "typeGuess": "road",
    "priorityScore": 12,
    "classificationCount": 5,
    "coordinates": {
      "lng": -0.1667583,
      "lat": 51.4758168
    }
  },
  {
    "id": "580502ed2c66dcab3d08393e",
    "name": "Ann Street",
    "typeGuess": "road",
    "priorityScore": 11,
    "classificationCount": 5,
    "coordinates": {
      "lng": -0.05298972,
      "lat": 51.52447879
    }
  },
  {
    "id": "57f6b2ea2c66dcab3d01db9e",
    "name": "Church",
    "typeGuess": "church",
    "priorityScore": 11,
    "classificationCount": 5,
    "coordinates": {
      "lng": -0.08235455,
      "lat": 51.51648445
    }
  },
  {
    "id": "57eec0352c66dca32200960b",
    "name": "Foundling Hospital",
    "typeGuess": "hospital",
    "priorityScore": 11,
    "classificationCount": 5,
    "coordinates": {
      "lng": -0.12081742,
      "lat": 51.52414391
    }
  },
  {
    "id": "57eec0242c66dca3220095fd",
    "name": "Hospl.",
    "typeGuess": "hospital",
    "priorityScore": 11,
    "classificationCount": 5,
    "coordinates": {
      "lng": -0.11646152,
      "lat": 51.5243642
    }
  },
  {
    "id": "57f685e22c66dcab3d01c187",
    "name": "Monument Sta.",
    "typeGuess": "station",
    "priorityScore": 11,
    "classificationCount": 5,
    "coordinates": {
      "lng": -0.08821249,
      "lat": 51.51074569
    }
  },
  {
    "id": "57f6ad662c66dcab3d01d8ba",
    "name": "Old BRoad Street",
    "typeGuess": "road",
    "priorityScore": 11,
    "classificationCount": 5,
    "coordinates": {
      "lng": -0.08575559,
      "lat": 51.51459832
    }
  },
  {
    "id": "57f6b28d2c66dcab3d01db64",
    "name": "R.C. Chap.",
    "typeGuess": "church",
    "priorityScore": 11,
    "classificationCount": 5,
    "coordinates": {
      "lng": -0.08666754,
      "lat": 51.51766617
    }
  },
  {
    "id": "57f6ad572c66dcab3d01d8b6",
    "name": "Sch.",
    "typeGuess": "school",
    "priorityScore": 11,
    "classificationCount": 5,
    "coordinates": {
      "lng": -0.0869143,
      "lat": 51.51672814
    }
  },
  {
    "id": "57f6ad522c66dcab3d01d8b4",
    "name": "Sch.",
    "typeGuess": "school",
    "priorityScore": 11,
    "classificationCount": 5,
    "coordinates": {
      "lng": -0.08852363,
      "lat": 51.5166547
    }
  },
  {
    "id": "57f6b2e42c66dcab3d01db98",
    "name": "Sch.",
    "typeGuess": "school",
    "priorityScore": 11,
    "classificationCount": 5,
    "coordinates": {
      "lng": -0.08276761,
      "lat": 51.51677154
    }
  },
  {
    "id": "57f6b37f2c66dcab3d01dbf7",
    "name": "Sun Street",
    "typeGuess": "road",
    "priorityScore": 11,
    "classificationCount": 5,
    "coordinates": {
      "lng": -0.08488119,
      "lat": 51.52021977
    }
  },
  {
    "id": "57f6ac9e2c66dcab3d01d86d",
    "name": "Threadneedle Street",
    "typeGuess": "road",
    "priorityScore": 11,
    "classificationCount": 5,
    "coordinates": {
      "lng": -0.08786917,
      "lat": 51.51373701
    }
  },
  {
    "id": "57e5262e2c66dc43f4000dd1",
    "name": "Westminster Bridge",
    "typeGuess": "bridge",
    "priorityScore": 11,
    "classificationCount": 5,
    "coordinates": {
      "lng": -0.12329578,
      "lat": 51.50075538
    }
  },
  {
    "id": "580b61ad2c66dc1ce5021de2",
    "name": "ALDRED ROAD",
    "typeGuess": "road",
    "priorityScore": 11,
    "classificationCount": 4,
    "coordinates": {
      "lng": -0.10547519,
      "lat": 51.48261229
    }
  },
  {
    "id": "586ad2c02c66dc10b807bd56",
    "name": "AMPTHILL SQUARE",
    "typeGuess": "road",
    "priorityScore": 11,
    "classificationCount": 4,
    "coordinates": {
      "lng": -0.13825178,
      "lat": 51.5306263
    }
  },
  {
    "id": "57f6629b2c66dcab3d01b00b",
    "name": "BALACLAVA ROAD",
    "typeGuess": "road",
    "priorityScore": 11,
    "classificationCount": 4,
    "coordinates": {
      "lng": -0.0725913,
      "lat": 51.49053575
    }
  },
  {
    "id": "5866e0f72c66dc10b80690ee",
    "name": "BALCOMBE STREET",
    "typeGuess": "road",
    "priorityScore": 11,
    "classificationCount": 4,
    "coordinates": {
      "lng": -0.16235948,
      "lat": 51.52417172
    }
  },
  {
    "id": "5934786e2c66dc085a077101",
    "name": "BARRETT STREET",
    "typeGuess": "road",
    "priorityScore": 11,
    "classificationCount": 4,
    "coordinates": {
      "lng": -0.20641208,
      "lat": 51.52698194
    }
  },
  {
    "id": "5803bda52c66dcab3d07b812",
    "name": "BIDBOROUGH STREET",
    "typeGuess": "road",
    "priorityScore": 11,
    "classificationCount": 4,
    "coordinates": {
      "lng": -0.12725472,
      "lat": 51.52797649
    }
  },
  {
    "id": "58678a542c66dc10b806a98c",
    "name": "BOLINGBROKE ROAD",
    "typeGuess": "road",
    "priorityScore": 11,
    "classificationCount": 4,
    "coordinates": {
      "lng": -0.21825671,
      "lat": 51.49990049
    }
  },
  {
    "id": "5809214c2c66dc1ce5011f92",
    "name": "BROKE ROAD",
    "typeGuess": "road",
    "priorityScore": 11,
    "classificationCount": 4,
    "coordinates": {
      "lng": -0.06857336,
      "lat": 51.53718005
    }
  },
  {
    "id": "586ad9ae2c66dc10b807c0b6",
    "name": "CALEDONIAN ROAD",
    "typeGuess": "road",
    "priorityScore": 11,
    "classificationCount": 4,
    "coordinates": {
      "lng": -0.1176846,
      "lat": 51.54430002
    }
  },
  {
    "id": "57fd6cdc2c66dcab3d04c142",
    "name": "CASSIDY ROAD",
    "typeGuess": "road",
    "priorityScore": 11,
    "classificationCount": 4,
    "coordinates": {
      "lng": -0.19978166,
      "lat": 51.47884271
    }
  },
  {
    "id": "5868303a2c66dc10b806e838",
    "name": "CHARLES'S SQUARE",
    "typeGuess": "road",
    "priorityScore": 11,
    "classificationCount": 4,
    "coordinates": {
      "lng": -0.21515608,
      "lat": 51.52186868
    }
  },
  {
    "id": "58658c4d2c66dc10b8060bb6",
    "name": "CHRIST CHURCH ST",
    "typeGuess": "church",
    "priorityScore": 11,
    "classificationCount": 4,
    "coordinates": {
      "lng": -0.16305685,
      "lat": 51.48633368
    }
  },
  {
    "id": "57f40f532c66dcab3d00d5df",
    "name": "COLLEGE STREET",
    "typeGuess": "road",
    "priorityScore": 11,
    "classificationCount": 4,
    "coordinates": {
      "lng": -0.11840343,
      "lat": 51.53206126
    }
  },
  {
    "id": "57f6c6ba2c66dcab3d01e3d3",
    "name": "CRANBOURN STREET",
    "typeGuess": "road",
    "priorityScore": 11,
    "classificationCount": 4,
    "coordinates": {
      "lng": -0.12947559,
      "lat": 51.5110662
    }
  },
  {
    "id": "580684b12c66dcab3d0904bc",
    "name": "DOD STREET",
    "typeGuess": "road",
    "priorityScore": 11,
    "classificationCount": 4,
    "coordinates": {
      "lng": -0.02628028,
      "lat": 51.51393064
    }
  },
  {
    "id": "5803bb402c66dcab3d07b597",
    "name": "DUKE'S ROAD",
    "typeGuess": "road",
    "priorityScore": 11,
    "classificationCount": 4,
    "coordinates": {
      "lng": -0.12981892,
      "lat": 51.52756266
    }
  },
  {
    "id": "5991f99d2c66dc085a189268",
    "name": "EGLINTON ROAD",
    "typeGuess": "road",
    "priorityScore": 11,
    "classificationCount": 4,
    "coordinates": {
      "lng": -0.03113508,
      "lat": 51.53129623
    }
  },
  {
    "id": "586ebc3b2c66dc67e2003040",
    "name": "EVERETT STREET",
    "typeGuess": "road",
    "priorityScore": 11,
    "classificationCount": 4,
    "coordinates": {
      "lng": -0.1338315,
      "lat": 51.48254548
    }
  },
  {
    "id": "58716e412c66dc67e200f9a5",
    "name": "GLADYS ROAD",
    "typeGuess": "road",
    "priorityScore": 11,
    "classificationCount": 4,
    "coordinates": {
      "lng": -0.19427776,
      "lat": 51.54469369
    }
  },
  {
    "id": "57f643bd2c66dcab3d01a30f",
    "name": "GREAT RUSSELL STREET",
    "typeGuess": "road",
    "priorityScore": 11,
    "classificationCount": 4,
    "coordinates": {
      "lng": -0.1284349,
      "lat": 51.51762166
    }
  },
  {
    "id": "5803bbde2c66dcab3d07b65d",
    "name": "GUILFORD STREET",
    "typeGuess": "road",
    "priorityScore": 11,
    "classificationCount": 4,
    "coordinates": {
      "lng": -0.12192249,
      "lat": 51.52291007
    }
  },
  {
    "id": "58035e312c66dcab3d076147",
    "name": "HANNIBAL ROAD",
    "typeGuess": "road",
    "priorityScore": 11,
    "classificationCount": 4,
    "coordinates": {
      "lng": -0.05005002,
      "lat": 51.52047345
    }
  },
  {
    "id": "5870138c2c66dc67e20098d9",
    "name": "HARGWYNE STREET",
    "typeGuess": "road",
    "priorityScore": 11,
    "classificationCount": 4,
    "coordinates": {
      "lng": -0.12197614,
      "lat": 51.46636022
    }
  },
  {
    "id": "57f781fd2c66dcab3d02113c",
    "name": "HUNSDEN ROAD",
    "typeGuess": "road",
    "priorityScore": 11,
    "classificationCount": 4,
    "coordinates": {
      "lng": -0.04878402,
      "lat": 51.47999979
    }
  },
  {
    "id": "5943e88e2c66dc085a0ad8c1",
    "name": "LADBROKE GROVE ROAD",
    "typeGuess": "road",
    "priorityScore": 11,
    "classificationCount": 4,
    "coordinates": {
      "lng": -0.21509171,
      "lat": 51.52609417
    }
  },
  {
    "id": "57fd6c612c66dcab3d04c102",
    "name": "LAMONT ROAD",
    "typeGuess": "road",
    "priorityScore": 11,
    "classificationCount": 4,
    "coordinates": {
      "lng": -0.1798743,
      "lat": 51.48278489
    }
  },
  {
    "id": "586c18be2c66dc10b80816e0",
    "name": "LANCASTER PLACE",
    "typeGuess": "road",
    "priorityScore": 11,
    "classificationCount": 4,
    "coordinates": {
      "lng": -0.16920447,
      "lat": 51.54608818
    }
  },
  {
    "id": "5807b6462c66dcd647000009",
    "name": "MYDDLETON SQUARE",
    "typeGuess": "road",
    "priorityScore": 11,
    "classificationCount": 4,
    "coordinates": {
      "lng": -0.10923028,
      "lat": 51.53031927
    }
  },
  {
    "id": "57f642682c66dcab3d01a295",
    "name": "R.C.CH.",
    "typeGuess": "church",
    "priorityScore": 11,
    "classificationCount": 4,
    "coordinates": {
      "lng": -0.1502037,
      "lat": 51.50954265
    }
  },
  {
    "id": "57e55aa72c66dc43f4001e4c",
    "name": "RICHMOND ROAD",
    "typeGuess": "road",
    "priorityScore": 11,
    "classificationCount": 4,
    "coordinates": {
      "lng": -0.19597292,
      "lat": 51.51804337
    }
  },
  {
    "id": "586b77cf2c66dc10b807cab0",
    "name": "RONALDS ROAD",
    "typeGuess": "road",
    "priorityScore": 11,
    "classificationCount": 4,
    "coordinates": {
      "lng": -0.10604382,
      "lat": 51.550645
    }
  },
  {
    "id": "586782632c66dc10b806a786",
    "name": "ROWAN ROAD",
    "typeGuess": "road",
    "priorityScore": 11,
    "classificationCount": 4,
    "coordinates": {
      "lng": -0.22027373,
      "lat": 51.49378891
    }
  },
  {
    "id": "5880a7f62c66dc67e20696d3",
    "name": "SEMERTON STREET",
    "typeGuess": "road",
    "priorityScore": 11,
    "classificationCount": 4,
    "coordinates": {
      "lng": -0.11955142,
      "lat": 51.54061006
    }
  },
  {
    "id": "5891aacb2c66dc811902e842",
    "name": "SERPENTINE ROAD",
    "typeGuess": "road",
    "priorityScore": 11,
    "classificationCount": 4,
    "coordinates": {
      "lng": -0.16685486,
      "lat": 51.50592443
    }
  },
  {
    "id": "5943e6122c66dc085a0ad827",
    "name": "SHIRLAND ROAD",
    "typeGuess": "road",
    "priorityScore": 11,
    "classificationCount": 4,
    "coordinates": {
      "lng": -0.19818306,
      "lat": 51.52790975
    }
  },
  {
    "id": "57f5a83f2c66dcab3d01824f",
    "name": "SHOE LANE",
    "typeGuess": "road",
    "priorityScore": 11,
    "classificationCount": 4,
    "coordinates": {
      "lng": -0.10664463,
      "lat": 51.51662688
    }
  },
  {
    "id": "5943e55b2c66dc085a0ad807",
    "name": "SILCHESTER ROAD",
    "typeGuess": "road",
    "priorityScore": 11,
    "classificationCount": 4,
    "coordinates": {
      "lng": -0.2194798,
      "lat": 51.51525931
    }
  },
  {
    "id": "586535be2c66dc10b805cd7a",
    "name": "SLOANE STREET",
    "typeGuess": "road",
    "priorityScore": 11,
    "classificationCount": 4,
    "coordinates": {
      "lng": -0.15954852,
      "lat": 51.49919252
    }
  },
  {
    "id": "580794e32c66dc1ce500648b",
    "name": "ST ANN'S ROAD",
    "typeGuess": "road",
    "priorityScore": 11,
    "classificationCount": 4,
    "coordinates": {
      "lng": -0.03349543,
      "lat": 51.5205135
    }
  },
  {
    "id": "57f3c2242c66dcab3d009892",
    "name": "ST. GEORGES ROAD",
    "typeGuess": "road",
    "priorityScore": 11,
    "classificationCount": 4,
    "coordinates": {
      "lng": -0.10844707,
      "lat": 51.49765633
    }
  },
  {
    "id": "5807b5d92c66dc1ce500793f",
    "name": "ST. JOHN STREET",
    "typeGuess": "road",
    "priorityScore": 11,
    "classificationCount": 4,
    "coordinates": {
      "lng": -0.10589361,
      "lat": 51.53041272
    }
  },
  {
    "id": "586fd4dd2c66dc67e20073cf",
    "name": "STERNDALE ROAD",
    "typeGuess": "road",
    "priorityScore": 11,
    "classificationCount": 4,
    "coordinates": {
      "lng": -0.13775826,
      "lat": 51.47417958
    }
  },
  {
    "id": "5870163a2c66dc67e2009a2b",
    "name": "TREHERNE ROAD",
    "typeGuess": "road",
    "priorityScore": 11,
    "classificationCount": 4,
    "coordinates": {
      "lng": -0.10867238,
      "lat": 51.47572324
    }
  },
  {
    "id": "586ec2732c66dc67e2003394",
    "name": "URSWICKE ROAD",
    "typeGuess": "road",
    "priorityScore": 11,
    "classificationCount": 4,
    "coordinates": {
      "lng": -0.17529845,
      "lat": 51.4702166
    }
  },
  {
    "id": "5866e3f52c66dc10b80692dc",
    "name": "WHARF RD.",
    "typeGuess": "wharf",
    "priorityScore": 11,
    "classificationCount": 4,
    "coordinates": {
      "lng": -0.17037392,
      "lat": 51.519432
    }
  },
  {
    "id": "586830272c66dc10b806e836",
    "name": "WORNINGTON ROAD",
    "typeGuess": "road",
    "priorityScore": 11,
    "classificationCount": 4,
    "coordinates": {
      "lng": -0.21068215,
      "lat": 51.52345746
    }
  },
  {
    "id": "5807b5bd2c66dc1ce5007925",
    "name": "WYNYATT STREET",
    "typeGuess": "road",
    "priorityScore": 11,
    "classificationCount": 4,
    "coordinates": {
      "lng": -0.10390878,
      "lat": 51.52829021
    }
  },
  {
    "id": "57f6ad5b2c66dcab3d01d8b8",
    "name": "Ch.",
    "typeGuess": "church",
    "priorityScore": 10,
    "classificationCount": 5,
    "coordinates": {
      "lng": -0.08489728,
      "lat": 51.51661464
    }
  },
  {
    "id": "57f6add12c66dc32f200000c",
    "name": "Ch.",
    "typeGuess": "church",
    "priorityScore": 10,
    "classificationCount": 5,
    "coordinates": {
      "lng": -0.08416772,
      "lat": 51.51316948
    }
  },
  {
    "id": "581a57cf2c66dc2d42002271",
    "name": "Abingdon Street",
    "typeGuess": "road",
    "priorityScore": 10,
    "classificationCount": 4,
    "coordinates": {
      "lng": -0.12578487,
      "lat": 51.49773648
    }
  },
  {
    "id": "57f17b822c66dca32201b659",
    "name": "Albert Bridge (Suspension)",
    "typeGuess": "bridge",
    "priorityScore": 10,
    "classificationCount": 4,
    "coordinates": {
      "lng": -0.1664257,
      "lat": 51.48233167
    }
  },
  {
    "id": "5866e7702c66dc10b8069411",
    "name": "All Saints' Road",
    "typeGuess": "road",
    "priorityScore": 10,
    "classificationCount": 4,
    "coordinates": {
      "lng": -0.20431995,
      "lat": 51.5187911
    }
  },
  {
    "id": "57eda1912c66dca322003e53",
    "name": "Arklow Road",
    "typeGuess": "road",
    "priorityScore": 10,
    "classificationCount": 4,
    "coordinates": {
      "lng": -0.03455758,
      "lat": 51.48101541
    }
  },
  {
    "id": "580e63772c66dc1ce5039ebb",
    "name": "Ashendon Road",
    "typeGuess": "road",
    "priorityScore": 10,
    "classificationCount": 4,
    "coordinates": {
      "lng": -0.03983617,
      "lat": 51.55120539
    }
  },
  {
    "id": "57f0fe042c66dcdfff000008",
    "name": "Atkin's Wharf",
    "typeGuess": "wharf",
    "priorityScore": 10,
    "classificationCount": 4,
    "coordinates": {
      "lng": -0.0325191,
      "lat": 51.49719547
    }
  },
  {
    "id": "586ebd062c66dc67e2003094",
    "name": "Battersea Park Rd. Sta.",
    "typeGuess": "station",
    "priorityScore": 10,
    "classificationCount": 4,
    "coordinates": {
      "lng": -0.14503241,
      "lat": 51.47869682
    }
  },
  {
    "id": "57f688162c66dcab3d01c32a",
    "name": "Blackfriars' Sta.",
    "typeGuess": "station",
    "priorityScore": 10,
    "classificationCount": 4,
    "coordinates": {
      "lng": -0.10547519,
      "lat": 51.51152025
    }
  },
  {
    "id": "57f12eaa2c66dca3220171f5",
    "name": "Borough Road Sta.",
    "typeGuess": "station",
    "priorityScore": 10,
    "classificationCount": 4,
    "coordinates": {
      "lng": -0.09989619,
      "lat": 51.49940625
    }
  },
  {
    "id": "586a45852c66dc10b8076fff",
    "name": "Camberwell New Rd. Sta.",
    "typeGuess": "station",
    "priorityScore": 10,
    "classificationCount": 4,
    "coordinates": {
      "lng": -0.09897351,
      "lat": 51.47309029
    }
  },
  {
    "id": "57f17ba32c66dca32201b683",
    "name": "Carlyle Pier (Floating)",
    "typeGuess": "pier",
    "priorityScore": 10,
    "classificationCount": 4,
    "coordinates": {
      "lng": -0.17235875,
      "lat": 51.48187733
    }
  },
  {
    "id": "58669b222c66dc10b8065dc8",
    "name": "Castletown Road",
    "typeGuess": "road",
    "priorityScore": 10,
    "classificationCount": 4,
    "coordinates": {
      "lng": -0.20923376,
      "lat": 51.48887234
    }
  },
  {
    "id": "58668ee02c66dc10b8065281",
    "name": "Chap",
    "typeGuess": "church",
    "priorityScore": 10,
    "classificationCount": 4,
    "coordinates": {
      "lng": -0.19123077,
      "lat": 51.47317049
    }
  },
  {
    "id": "586694de2c66dc10b80657ff",
    "name": "Chap",
    "typeGuess": "church",
    "priorityScore": 10,
    "classificationCount": 4,
    "coordinates": {
      "lng": -0.20332217,
      "lat": 51.47117229
    }
  },
  {
    "id": "586bc5322c66dcbab80000e8",
    "name": "Chap",
    "typeGuess": "church",
    "priorityScore": 10,
    "classificationCount": 4,
    "coordinates": {
      "lng": -0.19542575,
      "lat": 51.54032312
    }
  },
  {
    "id": "586ec3982c66dc67e200341f",
    "name": "Chap",
    "typeGuess": "church",
    "priorityScore": 10,
    "classificationCount": 4,
    "coordinates": {
      "lng": -0.16279936,
      "lat": 51.46966189
    }
  },
  {
    "id": "5807c3f82c66dc1ce500830d",
    "name": "Chap.",
    "typeGuess": "church",
    "priorityScore": 10,
    "classificationCount": 4,
    "coordinates": {
      "lng": -0.07356763,
      "lat": 51.53036599
    }
  },
  {
    "id": "580686f22c66dcab3d09083c",
    "name": "Chap.",
    "typeGuess": "church",
    "priorityScore": 10,
    "classificationCount": 4,
    "coordinates": {
      "lng": -0.02475142,
      "lat": 51.51169719
    }
  },
  {
    "id": "58653b652c66dc10b805d1b6",
    "name": "Chap.",
    "typeGuess": "church",
    "priorityScore": 10,
    "classificationCount": 4,
    "coordinates": {
      "lng": -0.15334725,
      "lat": 51.49070944
    }
  },
  {
    "id": "5865928b2c66dc10b8060f0c",
    "name": "Chap.",
    "typeGuess": "church",
    "priorityScore": 10,
    "classificationCount": 4,
    "coordinates": {
      "lng": -0.17548084,
      "lat": 51.49117037
    }
  },
  {
    "id": "586592a92c66dc10b8060f23",
    "name": "Chap.",
    "typeGuess": "church",
    "priorityScore": 10,
    "classificationCount": 4,
    "coordinates": {
      "lng": -0.17614603,
      "lat": 51.49020174
    }
  },
  {
    "id": "586690ba2c66dc10b806547f",
    "name": "Chap.",
    "typeGuess": "church",
    "priorityScore": 10,
    "classificationCount": 4,
    "coordinates": {
      "lng": -0.20027518,
      "lat": 51.48069469
    }
  },
  {
    "id": "586690ec2c66dc10b80654ba",
    "name": "Chap.",
    "typeGuess": "church",
    "priorityScore": 10,
    "classificationCount": 4,
    "coordinates": {
      "lng": -0.20470619,
      "lat": 51.4805076
    }
  },
  {
    "id": "586695a82c66dc10b80658b0",
    "name": "Chap.",
    "typeGuess": "church",
    "priorityScore": 10,
    "classificationCount": 4,
    "coordinates": {
      "lng": -0.20419121,
      "lat": 51.47323063
    }
  },
  {
    "id": "586697722c66dc10b8065a35",
    "name": "Chap.",
    "typeGuess": "church",
    "priorityScore": 10,
    "classificationCount": 4,
    "coordinates": {
      "lng": -0.21591783,
      "lat": 51.48324034
    }
  },
  {
    "id": "586698ce2c66dc10b8065b56",
    "name": "Chap.",
    "typeGuess": "church",
    "priorityScore": 10,
    "classificationCount": 4,
    "coordinates": {
      "lng": -0.19787192,
      "lat": 51.48189738
    }
  },
  {
    "id": "586698e82c66dc10b8065b68",
    "name": "Chap.",
    "typeGuess": "church",
    "priorityScore": 10,
    "classificationCount": 4,
    "coordinates": {
      "lng": -0.19463181,
      "lat": 51.48050092
    }
  },
  {
    "id": "58669a622c66dc10b8065d0e",
    "name": "Chap.",
    "typeGuess": "church",
    "priorityScore": 10,
    "classificationCount": 4,
    "coordinates": {
      "lng": -0.20271063,
      "lat": 51.48632032
    }
  },
  {
    "id": "58669ac62c66dc10b8065d71",
    "name": "Chap.",
    "typeGuess": "church",
    "priorityScore": 10,
    "classificationCount": 4,
    "coordinates": {
      "lng": -0.20796776,
      "lat": 51.48988776
    }
  },
  {
    "id": "58669d452c66dc10b8065fe9",
    "name": "Chap.",
    "typeGuess": "church",
    "priorityScore": 10,
    "classificationCount": 4,
    "coordinates": {
      "lng": -0.21499515,
      "lat": 51.48426925
    }
  },
  {
    "id": "5866d9d82c66dc10b8068ce4",
    "name": "Chap.",
    "typeGuess": "church",
    "priorityScore": 10,
    "classificationCount": 4,
    "coordinates": {
      "lng": -0.16529918,
      "lat": 51.51987929
    }
  },
  {
    "id": "5866d9f12c66dc10b8068cf4",
    "name": "Chap.",
    "typeGuess": "church",
    "priorityScore": 10,
    "classificationCount": 4,
    "coordinates": {
      "lng": -0.16638279,
      "lat": 51.5192117
    }
  },
  {
    "id": "5866db2b2c66dc10b8068dc6",
    "name": "Chap.",
    "typeGuess": "church",
    "priorityScore": 10,
    "classificationCount": 4,
    "coordinates": {
      "lng": -0.1394856,
      "lat": 51.51673482
    }
  },
  {
    "id": "5866e71e2c66dc10b80693ed",
    "name": "Chap.",
    "typeGuess": "church",
    "priorityScore": 10,
    "classificationCount": 4,
    "coordinates": {
      "lng": -0.20547867,
      "lat": 51.51560649
    }
  },
  {
    "id": "5866e75a2c66dc10b8069407",
    "name": "Chap.",
    "typeGuess": "church",
    "priorityScore": 10,
    "classificationCount": 4,
    "coordinates": {
      "lng": -0.2045989,
      "lat": 51.51775629
    }
  },
  {
    "id": "586781192c66dc10b806a6b3",
    "name": "Chap.",
    "typeGuess": "church",
    "priorityScore": 10,
    "classificationCount": 4,
    "coordinates": {
      "lng": -0.20904064,
      "lat": 51.49404274
    }
  },
  {
    "id": "5867828c2c66dc10b806a79e",
    "name": "Chap.",
    "typeGuess": "church",
    "priorityScore": 10,
    "classificationCount": 4,
    "coordinates": {
      "lng": -0.22287011,
      "lat": 51.49308085
    }
  },
  {
    "id": "586784462c66dc10b806a866",
    "name": "Chap.",
    "typeGuess": "church",
    "priorityScore": 10,
    "classificationCount": 4,
    "coordinates": {
      "lng": -0.22473693,
      "lat": 51.49380227
    }
  },
  {
    "id": "586788262c66dc10b806a936",
    "name": "Chap.",
    "typeGuess": "church",
    "priorityScore": 10,
    "classificationCount": 4,
    "coordinates": {
      "lng": -0.22307396,
      "lat": 51.50312627
    }
  },
  {
    "id": "586788cd2c66dc10b806a952",
    "name": "Chap.",
    "typeGuess": "church",
    "priorityScore": 10,
    "classificationCount": 4,
    "coordinates": {
      "lng": -0.22180796,
      "lat": 51.49979363
    }
  },
  {
    "id": "5867ac182c66dc10b806aec7",
    "name": "Chap.",
    "typeGuess": "church",
    "priorityScore": 10,
    "classificationCount": 4,
    "coordinates": {
      "lng": -0.19826889,
      "lat": 51.51003121
    }
  },
  {
    "id": "58682f5d2c66dc10b806e81e",
    "name": "Chap.",
    "typeGuess": "church",
    "priorityScore": 10,
    "classificationCount": 4,
    "coordinates": {
      "lng": -0.20910501,
      "lat": 51.5153461
    }
  },
  {
    "id": "586974ac2c66dc10b8074365",
    "name": "Chap.",
    "typeGuess": "church",
    "priorityScore": 10,
    "classificationCount": 4,
    "coordinates": {
      "lng": -0.05924463,
      "lat": 51.46529748
    }
  },
  {
    "id": "586974fd2c66dc10b80743bd",
    "name": "Chap.",
    "typeGuess": "church",
    "priorityScore": 10,
    "classificationCount": 4,
    "coordinates": {
      "lng": -0.06352544,
      "lat": 51.46700186
    }
  },
  {
    "id": "58697bba2c66dc10b8074ade",
    "name": "Chap.",
    "typeGuess": "church",
    "priorityScore": 10,
    "classificationCount": 4,
    "coordinates": {
      "lng": -0.07137895,
      "lat": 51.46630006
    }
  },
  {
    "id": "586ad0f32c66dc10b807bc79",
    "name": "Chap.",
    "typeGuess": "church",
    "priorityScore": 10,
    "classificationCount": 4,
    "coordinates": {
      "lng": -0.14224291,
      "lat": 51.53674628
    }
  },
  {
    "id": "586ad2672c66dc10b807bd27",
    "name": "Chap.",
    "typeGuess": "church",
    "priorityScore": 10,
    "classificationCount": 4,
    "coordinates": {
      "lng": -0.14208198,
      "lat": 51.52992548
    }
  },
  {
    "id": "586ad54a2c66dc10b807be95",
    "name": "Chap.",
    "typeGuess": "church",
    "priorityScore": 10,
    "classificationCount": 4,
    "coordinates": {
      "lng": -0.13403535,
      "lat": 51.53485765
    }
  },
  {
    "id": "586b77da2c66dc10b807cab4",
    "name": "Chap.",
    "typeGuess": "church",
    "priorityScore": 10,
    "classificationCount": 4,
    "coordinates": {
      "lng": -0.10132313,
      "lat": 51.55039148
    }
  },
  {
    "id": "586b84702c66dc10b807cd66",
    "name": "Chap.",
    "typeGuess": "church",
    "priorityScore": 10,
    "classificationCount": 4,
    "coordinates": {
      "lng": -0.07770896,
      "lat": 51.54975769
    }
  },
  {
    "id": "586bbe362c66dc10b807de7b",
    "name": "Chap.",
    "typeGuess": "church",
    "priorityScore": 10,
    "classificationCount": 4,
    "coordinates": {
      "lng": -0.20188451,
      "lat": 51.53256182
    }
  },
  {
    "id": "586bc0382c66dc10b807e053",
    "name": "Chap.",
    "typeGuess": "church",
    "priorityScore": 10,
    "classificationCount": 4,
    "coordinates": {
      "lng": -0.17320633,
      "lat": 51.54197798
    }
  },
  {
    "id": "586bc0fc2c66dc10b807e100",
    "name": "Chap.",
    "typeGuess": "church",
    "priorityScore": 10,
    "classificationCount": 4,
    "coordinates": {
      "lng": -0.17762661,
      "lat": 51.53327594
    }
  },
  {
    "id": "586bc10c2c66dc10b807e111",
    "name": "Chap.",
    "typeGuess": "church",
    "priorityScore": 10,
    "classificationCount": 4,
    "coordinates": {
      "lng": -0.18192887,
      "lat": 51.53455733
    }
  },
  {
    "id": "586bc24c2c66dc10b807e22b",
    "name": "Chap.",
    "typeGuess": "church",
    "priorityScore": 10,
    "classificationCount": 4,
    "coordinates": {
      "lng": -0.18517971,
      "lat": 51.53535818
    }
  },
  {
    "id": "586bc29f2c66dc10b807e270",
    "name": "Chap.",
    "typeGuess": "church",
    "priorityScore": 10,
    "classificationCount": 4,
    "coordinates": {
      "lng": -0.18582344,
      "lat": 51.53644597
    }
  },
  {
    "id": "586bc4072c66dc10b807e39a",
    "name": "Chap.",
    "typeGuess": "church",
    "priorityScore": 10,
    "classificationCount": 4,
    "coordinates": {
      "lng": -0.19240022,
      "lat": 51.53600552
    }
  },
  {
    "id": "586bc5122c66dc10b807e474",
    "name": "Chap.",
    "typeGuess": "church",
    "priorityScore": 10,
    "classificationCount": 4,
    "coordinates": {
      "lng": -0.19338727,
      "lat": 51.54089699
    }
  },
  {
    "id": "586c19cb2c66dc10b8081726",
    "name": "Chap.",
    "typeGuess": "church",
    "priorityScore": 10,
    "classificationCount": 4,
    "coordinates": {
      "lng": -0.15688777,
      "lat": 51.5424851
    }
  },
  {
    "id": "586c19d42c66dc10b8081728",
    "name": "Chap.",
    "typeGuess": "church",
    "priorityScore": 10,
    "classificationCount": 4,
    "coordinates": {
      "lng": -0.15686631,
      "lat": 51.54162433
    }
  },
  {
    "id": "586c1b362c66dc10b8081770",
    "name": "Chap.",
    "typeGuess": "church",
    "priorityScore": 10,
    "classificationCount": 4,
    "coordinates": {
      "lng": -0.15683413,
      "lat": 51.54667532
    }
  },
  {
    "id": "586c1b3e2c66dc10b8081772",
    "name": "Chap.",
    "typeGuess": "church",
    "priorityScore": 10,
    "classificationCount": 4,
    "coordinates": {
      "lng": -0.15624404,
      "lat": 51.54629502
    }
  },
  {
    "id": "586c1b462c66dc10b8081776",
    "name": "Chap.",
    "typeGuess": "church",
    "priorityScore": 10,
    "classificationCount": 4,
    "coordinates": {
      "lng": -0.15314341,
      "lat": 51.54616157
    }
  },
  {
    "id": "586e872a2c66dc67e20016dd",
    "name": "Chap.",
    "typeGuess": "church",
    "priorityScore": 10,
    "classificationCount": 4,
    "coordinates": {
      "lng": -0.21522045,
      "lat": 51.54366614
    }
  },
  {
    "id": "586e887a2c66dc67e2001801",
    "name": "Chap.",
    "typeGuess": "church",
    "priorityScore": 10,
    "classificationCount": 4,
    "coordinates": {
      "lng": -0.20271063,
      "lat": 51.54588802
    }
  },
  {
    "id": "586ebe072c66dc67e2003111",
    "name": "Chap.",
    "typeGuess": "church",
    "priorityScore": 10,
    "classificationCount": 4,
    "coordinates": {
      "lng": -0.17325997,
      "lat": 51.47753414
    }
  },
  {
    "id": "586ebebd2c66dc67e200317c",
    "name": "Chap.",
    "typeGuess": "church",
    "priorityScore": 10,
    "classificationCount": 4,
    "coordinates": {
      "lng": -0.17531991,
      "lat": 51.47502158
    }
  },
  {
    "id": "586ec2342c66dc67e200336f",
    "name": "Chap.",
    "typeGuess": "church",
    "priorityScore": 10,
    "classificationCount": 4,
    "coordinates": {
      "lng": -0.17617822,
      "lat": 51.46974877
    }
  },
  {
    "id": "586ec56d2c66dc67e20034ca",
    "name": "Chap.",
    "typeGuess": "church",
    "priorityScore": 10,
    "classificationCount": 4,
    "coordinates": {
      "lng": -0.17219782,
      "lat": 51.46636022
    }
  },
  {
    "id": "586ecbdb2c66dc67e200360e",
    "name": "Chap.",
    "typeGuess": "church",
    "priorityScore": 10,
    "classificationCount": 4,
    "coordinates": {
      "lng": -0.15807867,
      "lat": 51.4666543
    }
  },
  {
    "id": "586fd3962c66dc67e200729a",
    "name": "Chap.",
    "typeGuess": "church",
    "priorityScore": 10,
    "classificationCount": 4,
    "coordinates": {
      "lng": -0.14953852,
      "lat": 51.46644711
    }
  },
  {
    "id": "586fd4ef2c66dc67e20073ed",
    "name": "Chap.",
    "typeGuess": "church",
    "priorityScore": 10,
    "classificationCount": 4,
    "coordinates": {
      "lng": -0.13671756,
      "lat": 51.4753958
    }
  },
  {
    "id": "586fdc852c66dc67e2007863",
    "name": "Chap.",
    "typeGuess": "church",
    "priorityScore": 10,
    "classificationCount": 4,
    "coordinates": {
      "lng": -0.12410045,
      "lat": 51.47536907
    }
  },
  {
    "id": "586fdd842c66dc67e2007900",
    "name": "Chap.",
    "typeGuess": "church",
    "priorityScore": 10,
    "classificationCount": 4,
    "coordinates": {
      "lng": -0.11265278,
      "lat": 51.47953206
    }
  },
  {
    "id": "586fddbf2c66dc67e2007939",
    "name": "Chap.",
    "typeGuess": "church",
    "priorityScore": 10,
    "classificationCount": 4,
    "coordinates": {
      "lng": -0.11550665,
      "lat": 51.47738045
    }
  },
  {
    "id": "586fdddd2c66dc67e2007962",
    "name": "Chap.",
    "typeGuess": "church",
    "priorityScore": 10,
    "classificationCount": 4,
    "coordinates": {
      "lng": -0.11432648,
      "lat": 51.47601059
    }
  },
  {
    "id": "587013ca2c66dc67e20098fd",
    "name": "Chap.",
    "typeGuess": "church",
    "priorityScore": 10,
    "classificationCount": 4,
    "coordinates": {
      "lng": -0.11901498,
      "lat": 51.46745635
    }
  },
  {
    "id": "587015712c66dc67e20099cf",
    "name": "Chap.",
    "typeGuess": "church",
    "priorityScore": 10,
    "classificationCount": 4,
    "coordinates": {
      "lng": -0.09826541,
      "lat": 51.47559628
    }
  },
  {
    "id": "58701c452c66dc67e2009c98",
    "name": "Chap.",
    "typeGuess": "church",
    "priorityScore": 10,
    "classificationCount": 4,
    "coordinates": {
      "lng": -0.13205051,
      "lat": 51.47263586
    }
  },
  {
    "id": "58701c722c66dc67e2009ca9",
    "name": "Chap.",
    "typeGuess": "church",
    "priorityScore": 10,
    "classificationCount": 4,
    "coordinates": {
      "lng": -0.12748003,
      "lat": 51.47167352
    }
  },
  {
    "id": "58701c882c66dc67e2009cb5",
    "name": "Chap.",
    "typeGuess": "church",
    "priorityScore": 10,
    "classificationCount": 4,
    "coordinates": {
      "lng": -0.12763023,
      "lat": 51.47278957
    }
  },
  {
    "id": "57f17b8f2c66dca32201b663",
    "name": "Chelsea Pier (Floating)",
    "typeGuess": "pier",
    "priorityScore": 10,
    "classificationCount": 4,
    "coordinates": {
      "lng": -0.16606092,
      "lat": 51.48294636
    }
  },
  {
    "id": "5809e0ad2c66dc1ce50155e0",
    "name": "Elmington Road",
    "typeGuess": "road",
    "priorityScore": 10,
    "classificationCount": 4,
    "coordinates": {
      "lng": -0.0870645,
      "lat": 51.47695279
    }
  },
  {
    "id": "57f5a7642c66dcab3d0181db",
    "name": "G.P.O.",
    "typeGuess": "post_office",
    "priorityScore": 10,
    "classificationCount": 4,
    "coordinates": {
      "lng": -0.09793282,
      "lat": 51.5150846
    }
  },
  {
    "id": "586537922c66dc10b805ceae",
    "name": "Gloucester Road Sta.",
    "typeGuess": "station",
    "priorityScore": 10,
    "classificationCount": 4,
    "coordinates": {
      "lng": -0.1840961,
      "lat": 51.4941229
    }
  },
  {
    "id": "586eca662c66dc67e20035d8",
    "name": "Glycena Road",
    "typeGuess": "road",
    "priorityScore": 10,
    "classificationCount": 4,
    "coordinates": {
      "lng": -0.15891552,
      "lat": 51.46635353
    }
  },
  {
    "id": "5865949f2c66dc10b80610c8",
    "name": "Goods Sta.",
    "typeGuess": "station",
    "priorityScore": 10,
    "classificationCount": 4,
    "coordinates": {
      "lng": -0.19554377,
      "lat": 51.48571236
    }
  },
  {
    "id": "5866e9042c66dc10b806948f",
    "name": "Goods Sta.",
    "typeGuess": "station",
    "priorityScore": 10,
    "classificationCount": 4,
    "coordinates": {
      "lng": -0.1840961,
      "lat": 51.51929181
    }
  },
  {
    "id": "586c1a7e2c66dc10b8081746",
    "name": "Goods Sta.",
    "typeGuess": "station",
    "priorityScore": 10,
    "classificationCount": 4,
    "coordinates": {
      "lng": -0.14960289,
      "lat": 51.5404766
    }
  },
  {
    "id": "586ec5f92c66dc67e2003507",
    "name": "Goods Sta.",
    "typeGuess": "station",
    "priorityScore": 10,
    "classificationCount": 4,
    "coordinates": {
      "lng": -0.16671538,
      "lat": 51.46541111
    }
  },
  {
    "id": "586ecda32c66dc67e2003643",
    "name": "Goods Sta.",
    "typeGuess": "station",
    "priorityScore": 10,
    "classificationCount": 4,
    "coordinates": {
      "lng": -0.14457107,
      "lat": 51.47169357
    }
  },
  {
    "id": "58653cd52c66dc10b805d317",
    "name": "Grosvenor Road Sta.",
    "typeGuess": "station",
    "priorityScore": 10,
    "classificationCount": 4,
    "coordinates": {
      "lng": -0.1499033,
      "lat": 51.48583261
    }
  },
  {
    "id": "57f6acc22c66dcab3d01d882",
    "name": "Guild Hall",
    "typeGuess": "hall",
    "priorityScore": 10,
    "classificationCount": 4,
    "coordinates": {
      "lng": -0.09397388,
      "lat": 51.51588691
    }
  },
  {
    "id": "586784142c66dc10b806a854",
    "name": "Hammersmith Sta.",
    "typeGuess": "station",
    "priorityScore": 10,
    "classificationCount": 4,
    "coordinates": {
      "lng": -0.22621751,
      "lat": 51.49215902
    }
  },
  {
    "id": "586784342c66dc10b806a860",
    "name": "Hammersmith Sta.",
    "typeGuess": "station",
    "priorityScore": 10,
    "classificationCount": 4,
    "coordinates": {
      "lng": -0.22780538,
      "lat": 51.49340148
    }
  },
  {
    "id": "580143b62c66dcab3d0680ac",
    "name": "Hazlebury Road",
    "typeGuess": "road",
    "priorityScore": 10,
    "classificationCount": 4,
    "coordinates": {
      "lng": -0.19059777,
      "lat": 51.47195755
    }
  },
  {
    "id": "58658bd42c66dc10b8060b7c",
    "name": "Hospl",
    "typeGuess": "hospital",
    "priorityScore": 10,
    "classificationCount": 4,
    "coordinates": {
      "lng": -0.17062068,
      "lat": 51.48307999
    }
  },
  {
    "id": "5865902f2c66dc10b8060d87",
    "name": "Hospl.",
    "typeGuess": "hospital",
    "priorityScore": 10,
    "classificationCount": 4,
    "coordinates": {
      "lng": -0.1731205,
      "lat": 51.49058251
    }
  },
  {
    "id": "5866d9c22c66dc10b8068ccc",
    "name": "Hospl.",
    "typeGuess": "hospital",
    "priorityScore": 10,
    "classificationCount": 4,
    "coordinates": {
      "lng": -0.16480565,
      "lat": 51.52063367
    }
  },
  {
    "id": "57f8f19b2c66dcab3d0296c8",
    "name": "King's Road",
    "typeGuess": "road",
    "priorityScore": 10,
    "classificationCount": 4,
    "coordinates": {
      "lng": -0.15298247,
      "lat": 51.49508477
    }
  },
  {
    "id": "5809d7012c66dc1ce501546e",
    "name": "Kirk Wood Road",
    "typeGuess": "road",
    "priorityScore": 10,
    "classificationCount": 4,
    "coordinates": {
      "lng": -0.06011367,
      "lat": 51.46975546
    }
  },
  {
    "id": "57f7822d2c66dcab3d021155",
    "name": "Leyland Road",
    "typeGuess": "road",
    "priorityScore": 10,
    "classificationCount": 4,
    "coordinates": {
      "lng": -0.04606962,
      "lat": 51.47798852
    }
  },
  {
    "id": "57f686df2c66dcab3d01c23a",
    "name": "Mansion Ho. Sta.",
    "typeGuess": "station",
    "priorityScore": 10,
    "classificationCount": 4,
    "coordinates": {
      "lng": -0.0955832,
      "lat": 51.51151357
    }
  },
  {
    "id": "586b825c2c66dc10b807ccab",
    "name": "Mildmay Park Sta.",
    "typeGuess": "station",
    "priorityScore": 10,
    "classificationCount": 4,
    "coordinates": {
      "lng": -0.08398533,
      "lat": 51.54927733
    }
  },
  {
    "id": "586697c12c66dc10b8065a71",
    "name": "Misn. Ch.",
    "typeGuess": "church",
    "priorityScore": 10,
    "classificationCount": 4,
    "coordinates": {
      "lng": -0.21141171,
      "lat": 51.48324702
    }
  },
  {
    "id": "586594372c66dc10b8061078",
    "name": "Mort. Chap.",
    "typeGuess": "church",
    "priorityScore": 10,
    "classificationCount": 4,
    "coordinates": {
      "lng": -0.18897772,
      "lat": 51.48299313
    }
  },
  {
    "id": "57f7828e2c66dcab3d021193",
    "name": "Nettleton Road",
    "typeGuess": "road",
    "priorityScore": 10,
    "classificationCount": 4,
    "coordinates": {
      "lng": -0.04362345,
      "lat": 51.47545594
    }
  },
  {
    "id": "586694c82c66dc10b80657e6",
    "name": "New Kings Road",
    "typeGuess": "road",
    "priorityScore": 10,
    "classificationCount": 4,
    "coordinates": {
      "lng": -0.20521045,
      "lat": 51.47179381
    }
  },
  {
    "id": "580b630a2c66dc1ce5021eb1",
    "name": "Offley Road",
    "typeGuess": "road",
    "priorityScore": 10,
    "classificationCount": 4,
    "coordinates": {
      "lng": -0.11308193,
      "lat": 51.47990624
    }
  },
  {
    "id": "5866905f2c66dc10b806541e",
    "name": "Parson's Green Sta.",
    "typeGuess": "station",
    "priorityScore": 10,
    "classificationCount": 4,
    "coordinates": {
      "lng": -0.20275354,
      "lat": 51.47450703
    }
  },
  {
    "id": "5866db6b2c66dc10b8068de4",
    "name": "Portland Place",
    "typeGuess": "road",
    "priorityScore": 10,
    "classificationCount": 4,
    "coordinates": {
      "lng": -0.14547229,
      "lat": 51.52138136
    }
  },
  {
    "id": "57f174f52c66dca32201ac89",
    "name": "Priter Road",
    "typeGuess": "road",
    "priorityScore": 10,
    "classificationCount": 4,
    "coordinates": {
      "lng": -0.06690502,
      "lat": 51.49603326
    }
  },
  {
    "id": "586ed2732c66dc67e20036c7",
    "name": "Queen's Road Sta.",
    "typeGuess": "station",
    "priorityScore": 10,
    "classificationCount": 4,
    "coordinates": {
      "lng": -0.14744639,
      "lat": 51.47416621
    }
  },
  {
    "id": "586bbbe72c66dc10b807dd0e",
    "name": "R.C. Ch.",
    "typeGuess": "church",
    "priorityScore": 10,
    "classificationCount": 4,
    "coordinates": {
      "lng": -0.17329216,
      "lat": 51.52713547
    }
  },
  {
    "id": "5866ddca2c66dc10b8068ef9",
    "name": "R.C. Chap.",
    "typeGuess": "church",
    "priorityScore": 10,
    "classificationCount": 4,
    "coordinates": {
      "lng": -0.14496803,
      "lat": 51.52734906
    }
  },
  {
    "id": "586ad3e12c66dc10b807bddb",
    "name": "R.C. Chap.",
    "typeGuess": "church",
    "priorityScore": 10,
    "classificationCount": 4,
    "coordinates": {
      "lng": -0.13376713,
      "lat": 51.53041939
    }
  },
  {
    "id": "5857c9852c66dc10b8019063",
    "name": "R.C. Church",
    "typeGuess": "church",
    "priorityScore": 10,
    "classificationCount": 4,
    "coordinates": {
      "lng": -0.15778899,
      "lat": 51.55118538
    }
  },
  {
    "id": "586781d72c66dc10b806a739",
    "name": "R.C. Sch.",
    "typeGuess": "school",
    "priorityScore": 10,
    "classificationCount": 4,
    "coordinates": {
      "lng": -0.21537066,
      "lat": 51.4957594
    }
  },
  {
    "id": "57f643722c66dcab3d01a2f1",
    "name": "R.C.Ch.",
    "typeGuess": "church",
    "priorityScore": 10,
    "classificationCount": 4,
    "coordinates": {
      "lng": -0.13251185,
      "lat": 51.51527155
    }
  },
  {
    "id": "5865947e2c66dc10b80610ae",
    "name": "Road Car Company's Dep\u00f4t",
    "typeGuess": "road",
    "priorityScore": 10,
    "classificationCount": 4,
    "coordinates": {
      "lng": -0.19471765,
      "lat": 51.48249203
    }
  },
  {
    "id": "5807c7b02c66dc1ce50085c3",
    "name": "Royston Street",
    "typeGuess": "road",
    "priorityScore": 10,
    "classificationCount": 4,
    "coordinates": {
      "lng": -0.05047381,
      "lat": 51.52975528
    }
  },
  {
    "id": "586c1c9a2c66dc10b80817e1",
    "name": "SCH.",
    "typeGuess": "school",
    "priorityScore": 10,
    "classificationCount": 4,
    "coordinates": {
      "lng": -0.14099836,
      "lat": 51.54416658
    }
  },
  {
    "id": "586c1cd72c66dc10b80817f7",
    "name": "SCH.",
    "typeGuess": "school",
    "priorityScore": 10,
    "classificationCount": 4,
    "coordinates": {
      "lng": -0.14151335,
      "lat": 51.54663529
    }
  },
  {
    "id": "57f64c352c66dcab3d01a5a8",
    "name": "Sch",
    "typeGuess": "school",
    "priorityScore": 10,
    "classificationCount": 4,
    "coordinates": {
      "lng": -0.10358155,
      "lat": 51.534351
    }
  },
  {
    "id": "5866dd992c66dc10b8068edf",
    "name": "Sch",
    "typeGuess": "school",
    "priorityScore": 10,
    "classificationCount": 4,
    "coordinates": {
      "lng": -0.14182448,
      "lat": 51.52525979
    }
  },
  {
    "id": "586974d82c66dc10b8074395",
    "name": "Sch",
    "typeGuess": "school",
    "priorityScore": 10,
    "classificationCount": 4,
    "coordinates": {
      "lng": -0.06305337,
      "lat": 51.46825837
    }
  },
  {
    "id": "586ad80b2c66dc10b807bff1",
    "name": "Sch",
    "typeGuess": "school",
    "priorityScore": 10,
    "classificationCount": 4,
    "coordinates": {
      "lng": -0.11897206,
      "lat": 51.53541157
    }
  },
  {
    "id": "586bc5892c66dc10b807e4c3",
    "name": "Sch",
    "typeGuess": "school",
    "priorityScore": 10,
    "classificationCount": 4,
    "coordinates": {
      "lng": -0.19296885,
      "lat": 51.5386682
    }
  },
  {
    "id": "586c16382c66dc10b808161e",
    "name": "Sch",
    "typeGuess": "school",
    "priorityScore": 10,
    "classificationCount": 4,
    "coordinates": {
      "lng": -0.17823815,
      "lat": 51.54634172
    }
  },
  {
    "id": "58701a832c66dc67e2009c09",
    "name": "Sch",
    "typeGuess": "school",
    "priorityScore": 10,
    "classificationCount": 4,
    "coordinates": {
      "lng": -0.13695359,
      "lat": 51.46492318
    }
  },
  {
    "id": "58701b632c66dc67e2009c53",
    "name": "Sch",
    "typeGuess": "school",
    "priorityScore": 10,
    "classificationCount": 4,
    "coordinates": {
      "lng": -0.14173865,
      "lat": 51.46612629
    }
  },
  {
    "id": "57f37daa2c66dcab3d007228",
    "name": "Sch.",
    "typeGuess": "school",
    "priorityScore": 10,
    "classificationCount": 4,
    "coordinates": {
      "lng": -0.07920027,
      "lat": 51.4958262
    }
  },
  {
    "id": "586533542c66dc10b805cc05",
    "name": "Sch.",
    "typeGuess": "school",
    "priorityScore": 10,
    "classificationCount": 4,
    "coordinates": {
      "lng": -0.16626477,
      "lat": 51.49900551
    }
  },
  {
    "id": "586534452c66dc10b805cc8a",
    "name": "Sch.",
    "typeGuess": "school",
    "priorityScore": 10,
    "classificationCount": 4,
    "coordinates": {
      "lng": -0.15620112,
      "lat": 51.5019375
    }
  },
  {
    "id": "58653b2e2c66dc10b805d181",
    "name": "Sch.",
    "typeGuess": "school",
    "priorityScore": 10,
    "classificationCount": 4,
    "coordinates": {
      "lng": -0.1507616,
      "lat": 51.49098332
    }
  },
  {
    "id": "58653b352c66dc10b805d189",
    "name": "Sch.",
    "typeGuess": "school",
    "priorityScore": 10,
    "classificationCount": 4,
    "coordinates": {
      "lng": -0.15212417,
      "lat": 51.49076288
    }
  },
  {
    "id": "58653b832c66dc10b805d1d1",
    "name": "Sch.",
    "typeGuess": "school",
    "priorityScore": 10,
    "classificationCount": 4,
    "coordinates": {
      "lng": -0.15271425,
      "lat": 51.49190518
    }
  },
  {
    "id": "58658f302c66dc10b8060d02",
    "name": "Sch.",
    "typeGuess": "school",
    "priorityScore": 10,
    "classificationCount": 4,
    "coordinates": {
      "lng": -0.17145753,
      "lat": 51.48497077
    }
  },
  {
    "id": "586590372c66dc10b8060d8d",
    "name": "Sch.",
    "typeGuess": "school",
    "priorityScore": 10,
    "classificationCount": 4,
    "coordinates": {
      "lng": -0.17292738,
      "lat": 51.4903487
    }
  },
  {
    "id": "586593112c66dc10b8060f7f",
    "name": "Sch.",
    "typeGuess": "school",
    "priorityScore": 10,
    "classificationCount": 4,
    "coordinates": {
      "lng": -0.17921448,
      "lat": 51.49292721
    }
  },
  {
    "id": "58668f522c66dc10b80652f1",
    "name": "Sch.",
    "typeGuess": "school",
    "priorityScore": 10,
    "classificationCount": 4,
    "coordinates": {
      "lng": -0.18879533,
      "lat": 51.47266928
    }
  },
  {
    "id": "5866901f2c66dc10b80653cd",
    "name": "Sch.",
    "typeGuess": "school",
    "priorityScore": 10,
    "classificationCount": 4,
    "coordinates": {
      "lng": -0.19999623,
      "lat": 51.47544926
    }
  },
  {
    "id": "586690a02c66dc10b806545f",
    "name": "Sch.",
    "typeGuess": "school",
    "priorityScore": 10,
    "classificationCount": 4,
    "coordinates": {
      "lng": -0.20021081,
      "lat": 51.48110895
    }
  },
  {
    "id": "5866917e2c66dc10b8065554",
    "name": "Sch.",
    "typeGuess": "school",
    "priorityScore": 10,
    "classificationCount": 4,
    "coordinates": {
      "lng": -0.21056414,
      "lat": 51.48011338
    }
  },
  {
    "id": "586693ef2c66dc10b8065735",
    "name": "Sch.",
    "typeGuess": "school",
    "priorityScore": 10,
    "classificationCount": 4,
    "coordinates": {
      "lng": -0.21031737,
      "lat": 51.47058418
    }
  },
  {
    "id": "586694d62c66dc10b80657f7",
    "name": "Sch.",
    "typeGuess": "school",
    "priorityScore": 10,
    "classificationCount": 4,
    "coordinates": {
      "lng": -0.20363331,
      "lat": 51.47143961
    }
  },
  {
    "id": "5866977a2c66dc10b8065a3f",
    "name": "Sch.",
    "typeGuess": "school",
    "priorityScore": 10,
    "classificationCount": 4,
    "coordinates": {
      "lng": -0.21701217,
      "lat": 51.48366794
    }
  },
  {
    "id": "586697d52c66dc10b8065a89",
    "name": "Sch.",
    "typeGuess": "school",
    "priorityScore": 10,
    "classificationCount": 4,
    "coordinates": {
      "lng": -0.20926595,
      "lat": 51.48312008
    }
  },
  {
    "id": "586697fe2c66dc10b8065ab3",
    "name": "Sch.",
    "typeGuess": "school",
    "priorityScore": 10,
    "classificationCount": 4,
    "coordinates": {
      "lng": -0.20717382,
      "lat": 51.48146976
    }
  },
  {
    "id": "586698b02c66dc10b8065b3e",
    "name": "Sch.",
    "typeGuess": "school",
    "priorityScore": 10,
    "classificationCount": 4,
    "coordinates": {
      "lng": -0.1982367,
      "lat": 51.48335392
    }
  },
  {
    "id": "58669a292c66dc10b8065cc4",
    "name": "Sch.",
    "typeGuess": "school",
    "priorityScore": 10,
    "classificationCount": 4,
    "coordinates": {
      "lng": -0.20996332,
      "lat": 51.48662764
    }
  },
  {
    "id": "58669a4d2c66dc10b8065cf8",
    "name": "Sch.",
    "typeGuess": "school",
    "priorityScore": 10,
    "classificationCount": 4,
    "coordinates": {
      "lng": -0.20295739,
      "lat": 51.48466344
    }
  },
  {
    "id": "5866d9b32c66dc10b8068cc2",
    "name": "Sch.",
    "typeGuess": "school",
    "priorityScore": 10,
    "classificationCount": 4,
    "coordinates": {
      "lng": -0.1644516,
      "lat": 51.52149484
    }
  },
  {
    "id": "5866e1a22c66dc10b8069143",
    "name": "Sch.",
    "typeGuess": "school",
    "priorityScore": 10,
    "classificationCount": 4,
    "coordinates": {
      "lng": -0.1662755,
      "lat": 51.52234265
    }
  },
  {
    "id": "5866e1bd2c66dc10b8069153",
    "name": "Sch.",
    "typeGuess": "school",
    "priorityScore": 10,
    "classificationCount": 4,
    "coordinates": {
      "lng": -0.1680243,
      "lat": 51.52151487
    }
  },
  {
    "id": "5866e1d32c66dc10b806915d",
    "name": "Sch.",
    "typeGuess": "school",
    "priorityScore": 10,
    "classificationCount": 4,
    "coordinates": {
      "lng": -0.1666081,
      "lat": 51.52120779
    }
  },
  {
    "id": "5866e62d2c66dc10b806939d",
    "name": "Sch.",
    "typeGuess": "school",
    "priorityScore": 10,
    "classificationCount": 4,
    "coordinates": {
      "lng": -0.20805359,
      "lat": 51.51794323
    }
  },
  {
    "id": "5866e8f42c66dc10b806948b",
    "name": "Sch.",
    "typeGuess": "school",
    "priorityScore": 10,
    "classificationCount": 4,
    "coordinates": {
      "lng": -0.1811564,
      "lat": 51.52055356
    }
  },
  {
    "id": "5866eae82c66dc10b806953c",
    "name": "Sch.",
    "typeGuess": "school",
    "priorityScore": 10,
    "classificationCount": 4,
    "coordinates": {
      "lng": -0.18788338,
      "lat": 51.51161373
    }
  },
  {
    "id": "5867810f2c66dc10b806a6af",
    "name": "Sch.",
    "typeGuess": "school",
    "priorityScore": 10,
    "classificationCount": 4,
    "coordinates": {
      "lng": -0.20966291,
      "lat": 51.49512485
    }
  },
  {
    "id": "586781912c66dc10b806a707",
    "name": "Sch.",
    "typeGuess": "school",
    "priorityScore": 10,
    "classificationCount": 4,
    "coordinates": {
      "lng": -0.21511316,
      "lat": 51.4927001
    }
  },
  {
    "id": "586782a02c66dc10b806a7ab",
    "name": "Sch.",
    "typeGuess": "school",
    "priorityScore": 10,
    "classificationCount": 4,
    "coordinates": {
      "lng": -0.22364259,
      "lat": 51.49314765
    }
  },
  {
    "id": "586786d32c66dc10b806a900",
    "name": "Sch.",
    "typeGuess": "school",
    "priorityScore": 10,
    "classificationCount": 4,
    "coordinates": {
      "lng": -0.23013353,
      "lat": 51.49508477
    }
  },
  {
    "id": "5867ac722c66dc10b806aef7",
    "name": "Sch.",
    "typeGuess": "school",
    "priorityScore": 10,
    "classificationCount": 4,
    "coordinates": {
      "lng": -0.1883018,
      "lat": 51.51400409
    }
  },
  {
    "id": "5867ace02c66dc10b806af22",
    "name": "Sch.",
    "typeGuess": "school",
    "priorityScore": 10,
    "classificationCount": 4,
    "coordinates": {
      "lng": -0.20035028,
      "lat": 51.51194758
    }
  },
  {
    "id": "5867f8e12c66dc10b806da62",
    "name": "Sch.",
    "typeGuess": "school",
    "priorityScore": 10,
    "classificationCount": 4,
    "coordinates": {
      "lng": -0.21041393,
      "lat": 51.5062984
    }
  },
  {
    "id": "5867fa182c66dc10b806db02",
    "name": "Sch.",
    "typeGuess": "school",
    "priorityScore": 10,
    "classificationCount": 4,
    "coordinates": {
      "lng": -0.21553159,
      "lat": 51.51186078
    }
  },
  {
    "id": "58682d602c66dc10b806e7ea",
    "name": "Sch.",
    "typeGuess": "school",
    "priorityScore": 10,
    "classificationCount": 4,
    "coordinates": {
      "lng": -0.22168994,
      "lat": 51.51630085
    }
  },
  {
    "id": "586ad0702c66dc10b807bc4d",
    "name": "Sch.",
    "typeGuess": "school",
    "priorityScore": 10,
    "classificationCount": 4,
    "coordinates": {
      "lng": -0.14525771,
      "lat": 51.5383946
    }
  },
  {
    "id": "586ad0782c66dc10b807bc51",
    "name": "Sch.",
    "typeGuess": "school",
    "priorityScore": 10,
    "classificationCount": 4,
    "coordinates": {
      "lng": -0.14379859,
      "lat": 51.5375938
    }
  },
  {
    "id": "586ad0fa2c66dc10b807bc7b",
    "name": "Sch.",
    "typeGuess": "school",
    "priorityScore": 10,
    "classificationCount": 4,
    "coordinates": {
      "lng": -0.14140606,
      "lat": 51.53633252
    }
  },
  {
    "id": "586ad1062c66dc10b807bc7f",
    "name": "Sch.",
    "typeGuess": "school",
    "priorityScore": 10,
    "classificationCount": 4,
    "coordinates": {
      "lng": -0.13916373,
      "lat": 51.53501114
    }
  },
  {
    "id": "586ad1e02c66dc10b807bcdd",
    "name": "Sch.",
    "typeGuess": "school",
    "priorityScore": 10,
    "classificationCount": 4,
    "coordinates": {
      "lng": -0.13760805,
      "lat": 51.53922207
    }
  },
  {
    "id": "586ad3a92c66dc10b807bdc0",
    "name": "Sch.",
    "typeGuess": "school",
    "priorityScore": 10,
    "classificationCount": 4,
    "coordinates": {
      "lng": -0.13165355,
      "lat": 51.52919796
    }
  },
  {
    "id": "586ad3d42c66dc10b807bdcf",
    "name": "Sch.",
    "typeGuess": "school",
    "priorityScore": 10,
    "classificationCount": 4,
    "coordinates": {
      "lng": -0.13347745,
      "lat": 51.53008567
    }
  },
  {
    "id": "586ad4292c66dc10b807be07",
    "name": "Sch.",
    "typeGuess": "school",
    "priorityScore": 10,
    "classificationCount": 4,
    "coordinates": {
      "lng": -0.13123512,
      "lat": 51.53064632
    }
  },
  {
    "id": "586ad4b22c66dc10b807be55",
    "name": "Sch.",
    "typeGuess": "school",
    "priorityScore": 10,
    "classificationCount": 4,
    "coordinates": {
      "lng": -0.13990402,
      "lat": 51.52772953
    }
  },
  {
    "id": "586ad5a12c66dc10b807beb3",
    "name": "Sch.",
    "typeGuess": "school",
    "priorityScore": 10,
    "classificationCount": 4,
    "coordinates": {
      "lng": -0.13044119,
      "lat": 51.53263524
    }
  },
  {
    "id": "586ad5f72c66dc10b807bed1",
    "name": "Sch.",
    "typeGuess": "school",
    "priorityScore": 10,
    "classificationCount": 4,
    "coordinates": {
      "lng": -0.11944413,
      "lat": 51.52946494
    }
  },
  {
    "id": "586ad6622c66dc10b807bf09",
    "name": "Sch.",
    "typeGuess": "school",
    "priorityScore": 10,
    "classificationCount": 4,
    "coordinates": {
      "lng": -0.11828542,
      "lat": 51.53298896
    }
  },
  {
    "id": "586ad6b82c66dc10b807bf42",
    "name": "Sch.",
    "typeGuess": "school",
    "priorityScore": 10,
    "classificationCount": 4,
    "coordinates": {
      "lng": -0.11416554,
      "lat": 51.53366303
    }
  },
  {
    "id": "586ad6dd2c66dc10b807bf56",
    "name": "Sch.",
    "typeGuess": "school",
    "priorityScore": 10,
    "classificationCount": 4,
    "coordinates": {
      "lng": -0.111022,
      "lat": 51.53248841
    }
  },
  {
    "id": "586ad6ed2c66dc10b807bf5e",
    "name": "Sch.",
    "typeGuess": "school",
    "priorityScore": 10,
    "classificationCount": 4,
    "coordinates": {
      "lng": -0.11517406,
      "lat": 51.53222812
    }
  },
  {
    "id": "586ad71e2c66dc10b807bf76",
    "name": "Sch.",
    "typeGuess": "school",
    "priorityScore": 10,
    "classificationCount": 4,
    "coordinates": {
      "lng": -0.10891914,
      "lat": 51.53693981
    }
  },
  {
    "id": "586ad7c42c66dc10b807bfda",
    "name": "Sch.",
    "typeGuess": "school",
    "priorityScore": 10,
    "classificationCount": 4,
    "coordinates": {
      "lng": -0.11457324,
      "lat": 51.53480426
    }
  },
  {
    "id": "586ad8f02c66dc10b807c065",
    "name": "Sch.",
    "typeGuess": "school",
    "priorityScore": 10,
    "classificationCount": 4,
    "coordinates": {
      "lng": -0.12134314,
      "lat": 51.54039986
    }
  },
  {
    "id": "586b7d8d2c66dc10b807cc2b",
    "name": "Sch.",
    "typeGuess": "school",
    "priorityScore": 10,
    "classificationCount": 4,
    "coordinates": {
      "lng": -0.12766242,
      "lat": 51.54697556
    }
  },
  {
    "id": "586b7df72c66dc10b807cc3b",
    "name": "Sch.",
    "typeGuess": "school",
    "priorityScore": 10,
    "classificationCount": 4,
    "coordinates": {
      "lng": -0.13458252,
      "lat": 51.54584131
    }
  },
  {
    "id": "586b80032c66dc10b807cc6d",
    "name": "Sch.",
    "typeGuess": "school",
    "priorityScore": 10,
    "classificationCount": 4,
    "coordinates": {
      "lng": -0.0977397,
      "lat": 51.54378625
    }
  },
  {
    "id": "586b829a2c66dc10b807ccb2",
    "name": "Sch.",
    "typeGuess": "school",
    "priorityScore": 10,
    "classificationCount": 4,
    "coordinates": {
      "lng": -0.07980108,
      "lat": 51.54918393
    }
  },
  {
    "id": "586b84b42c66dc10b807cd7e",
    "name": "Sch.",
    "typeGuess": "school",
    "priorityScore": 10,
    "classificationCount": 4,
    "coordinates": {
      "lng": -0.0741148,
      "lat": 51.54913056
    }
  },
  {
    "id": "586bbe2d2c66dc10b807de74",
    "name": "Sch.",
    "typeGuess": "school",
    "priorityScore": 10,
    "classificationCount": 4,
    "coordinates": {
      "lng": -0.2028501,
      "lat": 51.53211466
    }
  },
  {
    "id": "586bc2f02c66dc10b807e2ab",
    "name": "Sch.",
    "typeGuess": "school",
    "priorityScore": 10,
    "classificationCount": 4,
    "coordinates": {
      "lng": -0.19212127,
      "lat": 51.5337231
    }
  },
  {
    "id": "586bc3372c66dc10b807e2e0",
    "name": "Sch.",
    "typeGuess": "school",
    "priorityScore": 10,
    "classificationCount": 4,
    "coordinates": {
      "lng": -0.19732475,
      "lat": 51.53294224
    }
  },
  {
    "id": "586bc3ae2c66dc10b807e344",
    "name": "Sch.",
    "typeGuess": "school",
    "priorityScore": 10,
    "classificationCount": 4,
    "coordinates": {
      "lng": -0.19212127,
      "lat": 51.53467746
    }
  },
  {
    "id": "586c15bd2c66dc10b80815da",
    "name": "Sch.",
    "typeGuess": "school",
    "priorityScore": 10,
    "classificationCount": 4,
    "coordinates": {
      "lng": -0.1811564,
      "lat": 51.54220485
    }
  },
  {
    "id": "586c1a362c66dc10b808173c",
    "name": "Sch.",
    "typeGuess": "school",
    "priorityScore": 10,
    "classificationCount": 4,
    "coordinates": {
      "lng": -0.15108347,
      "lat": 51.5395624
    }
  },
  {
    "id": "586c1b642c66dc10b808177e",
    "name": "Sch.",
    "typeGuess": "school",
    "priorityScore": 10,
    "classificationCount": 4,
    "coordinates": {
      "lng": -0.1542592,
      "lat": 51.54522747
    }
  },
  {
    "id": "586c1b6d2c66dc10b8081780",
    "name": "Sch.",
    "typeGuess": "school",
    "priorityScore": 10,
    "classificationCount": 4,
    "coordinates": {
      "lng": -0.15330434,
      "lat": 51.54488051
    }
  },
  {
    "id": "586c1c772c66dc10b80817d3",
    "name": "Sch.",
    "typeGuess": "school",
    "priorityScore": 10,
    "classificationCount": 4,
    "coordinates": {
      "lng": -0.14162064,
      "lat": 51.54279872
    }
  },
  {
    "id": "586ebce02c66dc67e2003088",
    "name": "Sch.",
    "typeGuess": "school",
    "priorityScore": 10,
    "classificationCount": 4,
    "coordinates": {
      "lng": -0.13939977,
      "lat": 51.47786156
    }
  },
  {
    "id": "586ebce92c66dc67e200308f",
    "name": "Sch.",
    "typeGuess": "school",
    "priorityScore": 10,
    "classificationCount": 4,
    "coordinates": {
      "lng": -0.14080524,
      "lat": 51.47952538
    }
  },
  {
    "id": "586ebd2d2c66dc67e20030a4",
    "name": "Sch.",
    "typeGuess": "school",
    "priorityScore": 10,
    "classificationCount": 4,
    "coordinates": {
      "lng": -0.1452899,
      "lat": 51.47736709
    }
  },
  {
    "id": "586ebd382c66dc67e20030a8",
    "name": "Sch.",
    "typeGuess": "school",
    "priorityScore": 10,
    "classificationCount": 4,
    "coordinates": {
      "lng": -0.14634132,
      "lat": 51.47768115
    }
  },
  {
    "id": "586ebf632c66dc67e20031f4",
    "name": "Sch.",
    "typeGuess": "school",
    "priorityScore": 10,
    "classificationCount": 4,
    "coordinates": {
      "lng": -0.16783118,
      "lat": 51.47403256
    }
  },
  {
    "id": "586ec3d72c66dc67e200342b",
    "name": "Sch.",
    "typeGuess": "school",
    "priorityScore": 10,
    "classificationCount": 4,
    "coordinates": {
      "lng": -0.16733766,
      "lat": 51.46882647
    }
  },
  {
    "id": "586ec58d2c66dc67e20034d6",
    "name": "Sch.",
    "typeGuess": "school",
    "priorityScore": 10,
    "classificationCount": 4,
    "coordinates": {
      "lng": -0.17798066,
      "lat": 51.46603271
    }
  },
  {
    "id": "586ecab22c66dc67e20035e8",
    "name": "Sch.",
    "typeGuess": "school",
    "priorityScore": 10,
    "classificationCount": 4,
    "coordinates": {
      "lng": -0.15778899,
      "lat": 51.46859923
    }
  },
  {
    "id": "586ecb2f2c66dc67e20035fa",
    "name": "Sch.",
    "typeGuess": "school",
    "priorityScore": 10,
    "classificationCount": 4,
    "coordinates": {
      "lng": -0.15297711,
      "lat": 51.46910383
    }
  },
  {
    "id": "586eccdb2c66dc67e200362f",
    "name": "Sch.",
    "typeGuess": "school",
    "priorityScore": 10,
    "classificationCount": 4,
    "coordinates": {
      "lng": -0.14701724,
      "lat": 51.47016982
    }
  },
  {
    "id": "586ece432c66dc67e200364f",
    "name": "Sch.",
    "typeGuess": "school",
    "priorityScore": 10,
    "classificationCount": 4,
    "coordinates": {
      "lng": -0.14349818,
      "lat": 51.4699359
    }
  },
  {
    "id": "586ecff92c66dc67e200367b",
    "name": "Sch.",
    "typeGuess": "school",
    "priorityScore": 10,
    "classificationCount": 4,
    "coordinates": {
      "lng": -0.15392661,
      "lat": 51.47492803
    }
  },
  {
    "id": "586fd5992c66dc67e20074b4",
    "name": "Sch.",
    "typeGuess": "school",
    "priorityScore": 10,
    "classificationCount": 4,
    "coordinates": {
      "lng": -0.12982965,
      "lat": 51.47467409
    }
  },
  {
    "id": "586fdbc22c66dc67e2007801",
    "name": "Sch.",
    "typeGuess": "school",
    "priorityScore": 10,
    "classificationCount": 4,
    "coordinates": {
      "lng": -0.12591362,
      "lat": 51.48125595
    }
  },
  {
    "id": "586fdcc02c66dc67e200787f",
    "name": "Sch.",
    "typeGuess": "school",
    "priorityScore": 10,
    "classificationCount": 4,
    "coordinates": {
      "lng": -0.12236238,
      "lat": 51.47970579
    }
  },
  {
    "id": "586fddad2c66dc67e2007923",
    "name": "Sch.",
    "typeGuess": "school",
    "priorityScore": 10,
    "classificationCount": 4,
    "coordinates": {
      "lng": -0.11416554,
      "lat": 51.4779618
    }
  },
  {
    "id": "587014182c66dc67e200991f",
    "name": "Sch.",
    "typeGuess": "school",
    "priorityScore": 10,
    "classificationCount": 4,
    "coordinates": {
      "lng": -0.11876822,
      "lat": 51.46643374
    }
  },
  {
    "id": "587016432c66dc67e2009a33",
    "name": "Sch.",
    "typeGuess": "school",
    "priorityScore": 10,
    "classificationCount": 4,
    "coordinates": {
      "lng": -0.10857582,
      "lat": 51.47649171
    }
  },
  {
    "id": "5870166c2c66dc67e2009a49",
    "name": "Sch.",
    "typeGuess": "school",
    "priorityScore": 10,
    "classificationCount": 4,
    "coordinates": {
      "lng": -0.10729909,
      "lat": 51.47713321
    }
  },
  {
    "id": "587017842c66dc67e2009acf",
    "name": "Sch.",
    "typeGuess": "school",
    "priorityScore": 10,
    "classificationCount": 4,
    "coordinates": {
      "lng": -0.11603236,
      "lat": 51.47104531
    }
  },
  {
    "id": "587017f72c66dc67e2009b0b",
    "name": "Sch.",
    "typeGuess": "school",
    "priorityScore": 10,
    "classificationCount": 4,
    "coordinates": {
      "lng": -0.1227808,
      "lat": 51.46887325
    }
  },
  {
    "id": "5870183a2c66dc67e2009b25",
    "name": "Sch.",
    "typeGuess": "school",
    "priorityScore": 10,
    "classificationCount": 4,
    "coordinates": {
      "lng": -0.12198687,
      "lat": 51.46930767
    }
  },
  {
    "id": "58701c032c66dc67e2009c7b",
    "name": "Sch.",
    "typeGuess": "school",
    "priorityScore": 10,
    "classificationCount": 4,
    "coordinates": {
      "lng": -0.13047338,
      "lat": 51.47065769
    }
  },
  {
    "id": "586817fc2c66dc10b806e206",
    "name": "Schs",
    "typeGuess": "school",
    "priorityScore": 10,
    "classificationCount": 4,
    "coordinates": {
      "lng": -0.228374,
      "lat": 51.50533677
    }
  },
  {
    "id": "586e87c72c66dc67e200176c",
    "name": "Schs",
    "typeGuess": "school",
    "priorityScore": 10,
    "classificationCount": 4,
    "coordinates": {
      "lng": -0.2048564,
      "lat": 51.54106381
    }
  },
  {
    "id": "57f229ad2c66dca32201d282",
    "name": "Schs.",
    "typeGuess": "school",
    "priorityScore": 10,
    "classificationCount": 4,
    "coordinates": {
      "lng": -0.08814812,
      "lat": 51.49029526
    }
  },
  {
    "id": "58035c212c66dcab3d075e9d",
    "name": "Schs.",
    "typeGuess": "school",
    "priorityScore": 10,
    "classificationCount": 4,
    "coordinates": {
      "lng": -0.07130384,
      "lat": 51.51437131
    }
  },
  {
    "id": "580359a62c66dcab3d075bab",
    "name": "Schs.",
    "typeGuess": "school",
    "priorityScore": 10,
    "classificationCount": 4,
    "coordinates": {
      "lng": -0.03352761,
      "lat": 51.50997112
    }
  },
  {
    "id": "58658c642c66dc10b8060bbe",
    "name": "Schs.",
    "typeGuess": "school",
    "priorityScore": 10,
    "classificationCount": 4,
    "coordinates": {
      "lng": -0.16402245,
      "lat": 51.48550525
    }
  },
  {
    "id": "5867ad732c66dc10b806af79",
    "name": "Schs.",
    "typeGuess": "school",
    "priorityScore": 10,
    "classificationCount": 4,
    "coordinates": {
      "lng": -0.19837618,
      "lat": 51.51600041
    }
  },
  {
    "id": "586ad0452c66dc10b807bc3d",
    "name": "Schs.",
    "typeGuess": "school",
    "priorityScore": 10,
    "classificationCount": 4,
    "coordinates": {
      "lng": -0.14267206,
      "lat": 51.5406234
    }
  },
  {
    "id": "586ad5402c66dc10b807be90",
    "name": "Schs.",
    "typeGuess": "school",
    "priorityScore": 10,
    "classificationCount": 4,
    "coordinates": {
      "lng": -0.13388515,
      "lat": 51.5338766
    }
  },
  {
    "id": "586ec4032c66dc67e2003435",
    "name": "Schs.",
    "typeGuess": "school",
    "priorityScore": 10,
    "classificationCount": 4,
    "coordinates": {
      "lng": -0.16696215,
      "lat": 51.4674764
    }
  },
  {
    "id": "586ec4c52c66dc67e200348c",
    "name": "Schs.",
    "typeGuess": "school",
    "priorityScore": 10,
    "classificationCount": 4,
    "coordinates": {
      "lng": -0.17454743,
      "lat": 51.46877969
    }
  },
  {
    "id": "586ecc4d2c66dc67e2003620",
    "name": "Schs.",
    "typeGuess": "school",
    "priorityScore": 10,
    "classificationCount": 4,
    "coordinates": {
      "lng": -0.15539646,
      "lat": 51.46704196
    }
  },
  {
    "id": "58701c0b2c66dc67e2009c80",
    "name": "Schs.",
    "typeGuess": "school",
    "priorityScore": 10,
    "classificationCount": 4,
    "coordinates": {
      "lng": -0.13207197,
      "lat": 51.47151981
    }
  },
  {
    "id": "586536d82c66dc10b805ce43",
    "name": "South Kensington Sta.",
    "typeGuess": "station",
    "priorityScore": 10,
    "classificationCount": 4,
    "coordinates": {
      "lng": -0.17699361,
      "lat": 51.49382899
    }
  },
  {
    "id": "5803bc942c66dcab3d07b714",
    "name": "Southampton Street",
    "typeGuess": "road",
    "priorityScore": 10,
    "classificationCount": 4,
    "coordinates": {
      "lng": -0.12238383,
      "lat": 51.51825701
    }
  },
  {
    "id": "57f37dc92c66dcab3d007243",
    "name": "St. Thomas's Street",
    "typeGuess": "road",
    "priorityScore": 10,
    "classificationCount": 4,
    "coordinates": {
      "lng": -0.08704305,
      "lat": 51.50412134
    }
  },
  {
    "id": "586c1d8e2c66dc10b8081835",
    "name": "Sta",
    "typeGuess": "station",
    "priorityScore": 10,
    "classificationCount": 4,
    "coordinates": {
      "lng": -0.14033318,
      "lat": 51.55089184
    }
  },
  {
    "id": "586537852c66dc10b805cea3",
    "name": "Sta.",
    "typeGuess": "station",
    "priorityScore": 10,
    "classificationCount": 4,
    "coordinates": {
      "lng": -0.18267989,
      "lat": 51.49473075
    }
  },
  {
    "id": "5866eade2c66dc10b806953a",
    "name": "Sta.",
    "typeGuess": "station",
    "priorityScore": 10,
    "classificationCount": 4,
    "coordinates": {
      "lng": -0.18829107,
      "lat": 51.51213454
    }
  },
  {
    "id": "586786f82c66dc10b806a906",
    "name": "Sta.",
    "typeGuess": "station",
    "priorityScore": 10,
    "classificationCount": 4,
    "coordinates": {
      "lng": -0.22653937,
      "lat": 51.49508477
    }
  },
  {
    "id": "5867881c2c66dc10b806a932",
    "name": "Sta.",
    "typeGuess": "station",
    "priorityScore": 10,
    "classificationCount": 4,
    "coordinates": {
      "lng": -0.22350311,
      "lat": 51.50223136
    }
  },
  {
    "id": "5867aaf72c66dc10b806ae5a",
    "name": "Sta.",
    "typeGuess": "station",
    "priorityScore": 10,
    "classificationCount": 4,
    "coordinates": {
      "lng": -0.19693315,
      "lat": 51.50887935
    }
  },
  {
    "id": "586b7d1c2c66dc10b807cc15",
    "name": "Sta.",
    "typeGuess": "station",
    "priorityScore": 10,
    "classificationCount": 4,
    "coordinates": {
      "lng": -0.13871312,
      "lat": 51.5420714
    }
  },
  {
    "id": "586b7de32c66dc10b807cc37",
    "name": "Sta.",
    "typeGuess": "station",
    "priorityScore": 10,
    "classificationCount": 4,
    "coordinates": {
      "lng": -0.13393879,
      "lat": 51.54656857
    }
  },
  {
    "id": "586bc40f2c66dc10b807e3a8",
    "name": "Sta.",
    "typeGuess": "station",
    "priorityScore": 10,
    "classificationCount": 4,
    "coordinates": {
      "lng": -0.19273281,
      "lat": 51.53710665
    }
  },
  {
    "id": "586c16222c66dc10b808160a",
    "name": "Sta.",
    "typeGuess": "station",
    "priorityScore": 10,
    "classificationCount": 4,
    "coordinates": {
      "lng": -0.17992258,
      "lat": 51.5469422
    }
  },
  {
    "id": "586c1aa22c66dc10b808174e",
    "name": "Sta.",
    "typeGuess": "station",
    "priorityScore": 10,
    "classificationCount": 4,
    "coordinates": {
      "lng": -0.15479565,
      "lat": 51.54353937
    }
  },
  {
    "id": "586e88822c66dc67e2001809",
    "name": "Sta.",
    "typeGuess": "station",
    "priorityScore": 10,
    "classificationCount": 4,
    "coordinates": {
      "lng": -0.203408,
      "lat": 51.54492722
    }
  },
  {
    "id": "5936720a2c66dc085a07d099",
    "name": "Sta.",
    "typeGuess": "station",
    "priorityScore": 10,
    "classificationCount": 4,
    "coordinates": {
      "lng": -0.17504096,
      "lat": 51.54343928
    }
  },
  {
    "id": "58701cbd2c66dc67e2009cd3",
    "name": "Stockwell Sta. (Elec. Ry.)",
    "typeGuess": "station",
    "priorityScore": 10,
    "classificationCount": 4,
    "coordinates": {
      "lng": -0.12536645,
      "lat": 51.47246879
    }
  },
  {
    "id": "580332422c66dcab3d07483e",
    "name": "Sun. Sch.",
    "typeGuess": "school",
    "priorityScore": 10,
    "classificationCount": 4,
    "coordinates": {
      "lng": -0.21637917,
      "lat": 51.54628167
    }
  },
  {
    "id": "580067472c66dcab3d05fa7c",
    "name": "Tressillian Road",
    "typeGuess": "road",
    "priorityScore": 10,
    "classificationCount": 4,
    "coordinates": {
      "lng": -0.02670407,
      "lat": 51.4654178
    }
  },
  {
    "id": "57f644092c66dcab3d01a32b",
    "name": "Trundleys Road",
    "typeGuess": "road",
    "priorityScore": 10,
    "classificationCount": 4,
    "coordinates": {
      "lng": -0.04330158,
      "lat": 51.48722891
    }
  },
  {
    "id": "5807c5952c66dc1ce5008411",
    "name": "Tuilerie Street",
    "typeGuess": "road",
    "priorityScore": 10,
    "classificationCount": 4,
    "coordinates": {
      "lng": -0.06778479,
      "lat": 51.53285548
    }
  },
  {
    "id": "595d57792c66dc085a10be54",
    "name": "Union Road",
    "typeGuess": "road",
    "priorityScore": 10,
    "classificationCount": 4,
    "coordinates": {
      "lng": -0.13185021,
      "lat": 51.46951887
    }
  },
  {
    "id": "57fd6a5b2c66dcab3d04bf86",
    "name": "Union Street",
    "typeGuess": "road",
    "priorityScore": 10,
    "classificationCount": 4,
    "coordinates": {
      "lng": -0.1399684,
      "lat": 51.51889681
    }
  },
  {
    "id": "57f17b422c66dca32201b613",
    "name": "Victoria Bridge",
    "typeGuess": "bridge",
    "priorityScore": 10,
    "classificationCount": 4,
    "coordinates": {
      "lng": -0.14905572,
      "lat": 51.48493736
    }
  },
  {
    "id": "586594ba2c66dc10b80610dc",
    "name": "West Brompton Sta. (Met. Dist.)",
    "typeGuess": "station",
    "priorityScore": 10,
    "classificationCount": 4,
    "coordinates": {
      "lng": -0.19528627,
      "lat": 51.48753622
    }
  },
  {
    "id": "586780812c66dc10b806a63e",
    "name": "West Kensington Sta.",
    "typeGuess": "station",
    "priorityScore": 10,
    "classificationCount": 4,
    "coordinates": {
      "lng": -0.20704508,
      "lat": 51.49071612
    }
  },
  {
    "id": "5866dceb2c66dc10b8068e90",
    "name": "Woburn Square",
    "typeGuess": "road",
    "priorityScore": 10,
    "classificationCount": 4,
    "coordinates": {
      "lng": -0.12942195,
      "lat": 51.52338403
    }
  },
  {
    "id": "5866e9c72c66dc10b80694c9",
    "name": "sch.",
    "typeGuess": "school",
    "priorityScore": 10,
    "classificationCount": 4,
    "coordinates": {
      "lng": -0.17947197,
      "lat": 51.51282895
    }
  },
  {
    "id": "586bc25e2c66dc10b807e239",
    "name": "ABBEY ROAD",
    "typeGuess": "road",
    "priorityScore": 10,
    "classificationCount": 3,
    "coordinates": {
      "lng": -0.18468618,
      "lat": 51.53790745
    }
  },
  {
    "id": "592409752c66dc085a03a5a1",
    "name": "ABBEY ROAD",
    "typeGuess": "road",
    "priorityScore": 10,
    "classificationCount": 3,
    "coordinates": {
      "lng": -0.21655083,
      "lat": 51.51088591
    }
  },
  {
    "id": "57f00d3e2c66dca3220109c0",
    "name": "ABBEY STREET",
    "typeGuess": "road",
    "priorityScore": 10,
    "classificationCount": 3,
    "coordinates": {
      "lng": -0.07756948,
      "lat": 51.49756282
    }
  },
  {
    "id": "57f521292c66dcab3d013fc7",
    "name": "ABBEYFIELD ROAD",
    "typeGuess": "road",
    "priorityScore": 10,
    "classificationCount": 3,
    "coordinates": {
      "lng": -0.05539298,
      "lat": 51.49169142
    }
  },
  {
    "id": "586bc5012c66dc10b807e468",
    "name": "ABBOTS ROAD",
    "typeGuess": "road",
    "priorityScore": 10,
    "classificationCount": 3,
    "coordinates": {
      "lng": -0.19133806,
      "lat": 51.5406968
    }
  },
  {
    "id": "5868190f2c66dc10b806e224",
    "name": "ABDALE ROAD",
    "typeGuess": "road",
    "priorityScore": 10,
    "classificationCount": 3,
    "coordinates": {
      "lng": -0.22972584,
      "lat": 51.50723998
    }
  },
  {
    "id": "586bc1902c66dc10b807e183",
    "name": "ABERCORN PLACE",
    "typeGuess": "road",
    "priorityScore": 10,
    "classificationCount": 3,
    "coordinates": {
      "lng": -0.18303394,
      "lat": 51.53144056
    }
  },
  {
    "id": "57ed1e992c66dca3220007b8",
    "name": "ABERDEEN PLACE",
    "typeGuess": "road",
    "priorityScore": 10,
    "classificationCount": 3,
    "coordinates": {
      "lng": -0.1764679,
      "lat": 51.52479252
    }
  },
  {
    "id": "586597eb2c66dcde220002c7",
    "name": "ABINGDON ROAD",
    "typeGuess": "road",
    "priorityScore": 10,
    "classificationCount": 3,
    "coordinates": {
      "lng": -0.1967454,
      "lat": 51.49873167
    }
  },
  {
    "id": "57f643992c66dcab3d01a301",
    "name": "ABINGER ROAD",
    "typeGuess": "road",
    "priorityScore": 10,
    "classificationCount": 3,
    "coordinates": {
      "lng": -0.03316283,
      "lat": 51.48203769
    }
  },
  {
    "id": "57f669812c66dcab3d01b3b6",
    "name": "ACHILLES STREET",
    "typeGuess": "road",
    "priorityScore": 10,
    "classificationCount": 3,
    "coordinates": {
      "lng": -0.03667116,
      "lat": 51.47639148
    }
  },
  {
    "id": "58682f9e2c66dc10b806e824",
    "name": "ACKLAM ROAD",
    "typeGuess": "road",
    "priorityScore": 10,
    "classificationCount": 3,
    "coordinates": {
      "lng": -0.20635843,
      "lat": 51.51951879
    }
  },
  {
    "id": "5806883b2c66dcab3d090ae4",
    "name": "ACLAND STREET",
    "typeGuess": "road",
    "priorityScore": 10,
    "classificationCount": 3,
    "coordinates": {
      "lng": -0.02740145,
      "lat": 51.51702858
    }
  },
  {
    "id": "586c14c02c66dc10b8081566",
    "name": "ACOL ROAD",
    "typeGuess": "road",
    "priorityScore": 10,
    "classificationCount": 3,
    "coordinates": {
      "lng": -0.19152045,
      "lat": 51.54199133
    }
  },
  {
    "id": "586bc63d2c66dc10b807e531",
    "name": "ADAIR ROAD",
    "typeGuess": "road",
    "priorityScore": 10,
    "classificationCount": 3,
    "coordinates": {
      "lng": -0.20776391,
      "lat": 51.5248259
    }
  },
  {
    "id": "57fd6b442c66dcab3d04c050",
    "name": "ADAM STREET",
    "typeGuess": "road",
    "priorityScore": 10,
    "classificationCount": 3,
    "coordinates": {
      "lng": -0.15494049,
      "lat": 51.5170742
    }
  },
  {
    "id": "57f3a5012c66dcab3d008ac2",
    "name": "ADDINGTON SQUARE",
    "typeGuess": "road",
    "priorityScore": 10,
    "classificationCount": 3,
    "coordinates": {
      "lng": -0.09221435,
      "lat": 51.48120917
    }
  },
  {
    "id": "586789a62c66dc10b806a972",
    "name": "ADDISON ROAD",
    "typeGuess": "road",
    "priorityScore": 10,
    "classificationCount": 3,
    "coordinates": {
      "lng": -0.20962,
      "lat": 51.50295263
    }
  },
  {
    "id": "5867f8ee2c66dc10b806da6a",
    "name": "ADDISON ROAD NORTH",
    "typeGuess": "road",
    "priorityScore": 10,
    "classificationCount": 3,
    "coordinates": {
      "lng": -0.21277428,
      "lat": 51.50755383
    }
  },
  {
    "id": "586c19302c66dc10b8081700",
    "name": "ADELAIDE ROAD",
    "typeGuess": "road",
    "priorityScore": 10,
    "classificationCount": 3,
    "coordinates": {
      "lng": -0.17214417,
      "lat": 51.54202469
    }
  },
  {
    "id": "586c1ab72c66dc10b8081752",
    "name": "ADELAIDE ROAD",
    "typeGuess": "road",
    "priorityScore": 10,
    "classificationCount": 3,
    "coordinates": {
      "lng": -0.15881896,
      "lat": 51.54387299
    }
  },
  {
    "id": "57f66a712c66dcab3d01b403",
    "name": "ADOLPHUS STREET",
    "typeGuess": "road",
    "priorityScore": 10,
    "classificationCount": 3,
    "coordinates": {
      "lng": -0.02962232,
      "lat": 51.47786156
    }
  },
  {
    "id": "5867877e2c66dc10b806a91a",
    "name": "AGATE ROAD",
    "typeGuess": "road",
    "priorityScore": 10,
    "classificationCount": 3,
    "coordinates": {
      "lng": -0.22888899,
      "lat": 51.49923928
    }
  },
  {
    "id": "586787212c66dc10b806a90c",
    "name": "AIDE ROAD",
    "typeGuess": "road",
    "priorityScore": 10,
    "classificationCount": 3,
    "coordinates": {
      "lng": -0.22895336,
      "lat": 51.49704852
    }
  },
  {
    "id": "586c19bf2c66dc10b8081724",
    "name": "AINGER ROAD",
    "typeGuess": "road",
    "priorityScore": 10,
    "classificationCount": 3,
    "coordinates": {
      "lng": -0.15933394,
      "lat": 51.54085695
    }
  },
  {
    "id": "57f3a49e2c66dcab3d008a4a",
    "name": "ALBANY ROAD",
    "typeGuess": "road",
    "priorityScore": 10,
    "classificationCount": 3,
    "coordinates": {
      "lng": -0.09379148,
      "lat": 51.48224481
    }
  },
  {
    "id": "57f3a4bc2c66dcab3d008a6f",
    "name": "ALBANY ROAD",
    "typeGuess": "road",
    "priorityScore": 10,
    "classificationCount": 3,
    "coordinates": {
      "lng": -0.08744001,
      "lat": 51.48342073
    }
  },
  {
    "id": "5866de142c66dc90f5000577",
    "name": "ALBANY STREET",
    "typeGuess": "road",
    "priorityScore": 10,
    "classificationCount": 3,
    "coordinates": {
      "lng": -0.14490366,
      "lat": 51.53079983
    }
  },
  {
    "id": "57fbaa882c66dcab3d03de2d",
    "name": "ALBEMARLE STREET",
    "typeGuess": "road",
    "priorityScore": 10,
    "classificationCount": 3,
    "coordinates": {
      "lng": -0.14263451,
      "lat": 51.50963057
    }
  },
  {
    "id": "586ad0b52c66dc10b807bc61",
    "name": "ALBERT ROAD",
    "typeGuess": "road",
    "priorityScore": 10,
    "classificationCount": 3,
    "coordinates": {
      "lng": -0.15630841,
      "lat": 51.53707995
    }
  },
  {
    "id": "586bc5e22c66dc10b807e4df",
    "name": "ALBERT ROAD",
    "typeGuess": "road",
    "priorityScore": 10,
    "classificationCount": 3,
    "coordinates": {
      "lng": -0.2022922,
      "lat": 51.53378316
    }
  },
  {
    "id": "580353bc2c66dcab3d0757b4",
    "name": "ALBERT SQUARE",
    "typeGuess": "road",
    "priorityScore": 10,
    "classificationCount": 3,
    "coordinates": {
      "lng": -0.04690647,
      "lat": 51.51300923
    }
  },
  {
    "id": "57f4b96d2c66dcab3d0115d5",
    "name": "ALBERT STREET",
    "typeGuess": "road",
    "priorityScore": 10,
    "classificationCount": 3,
    "coordinates": {
      "lng": -0.10372639,
      "lat": 51.48867192
    }
  },
  {
    "id": "58035c592c66dcab3d075eda",
    "name": "ALBERT STREET",
    "typeGuess": "road",
    "priorityScore": 10,
    "classificationCount": 3,
    "coordinates": {
      "lng": -0.06731272,
      "lat": 51.52068708
    }
  },
  {
    "id": "586ad0e22c66dc10b807bc71",
    "name": "ALBERT STREET",
    "typeGuess": "road",
    "priorityScore": 10,
    "classificationCount": 3,
    "coordinates": {
      "lng": -0.14338017,
      "lat": 51.5363392
    }
  },
  {
    "id": "57f00c312c66dca322010922",
    "name": "ALBION DOCK",
    "typeGuess": "dock",
    "priorityScore": 10,
    "classificationCount": 3,
    "coordinates": {
      "lng": -0.04781842,
      "lat": 51.49940625
    }
  },
  {
    "id": "586c15d02c66dc10b80815e4",
    "name": "ALBION ROAD",
    "typeGuess": "road",
    "priorityScore": 10,
    "classificationCount": 3,
    "coordinates": {
      "lng": -0.17757297,
      "lat": 51.5441599
    }
  },
  {
    "id": "57f0fc712c66dca322015325",
    "name": "ALBION STREET",
    "typeGuess": "road",
    "priorityScore": 10,
    "classificationCount": 3,
    "coordinates": {
      "lng": -0.05224943,
      "lat": 51.49983036
    }
  },
  {
    "id": "5866e2bc2c66dc10b806920a",
    "name": "ALBION STREET",
    "typeGuess": "road",
    "priorityScore": 10,
    "classificationCount": 3,
    "coordinates": {
      "lng": -0.16677976,
      "lat": 51.51386387
    }
  },
  {
    "id": "586ad6902c66dc10b807bf2a",
    "name": "ALBION STREET",
    "typeGuess": "road",
    "priorityScore": 10,
    "classificationCount": 3,
    "coordinates": {
      "lng": -0.12081742,
      "lat": 51.53317583
    }
  },
  {
    "id": "57fa93082c66dcab3d03794e",
    "name": "ALBYN ROAD",
    "typeGuess": "road",
    "priorityScore": 10,
    "classificationCount": 3,
    "coordinates": {
      "lng": -0.02183318,
      "lat": 51.46934777
    }
  },
  {
    "id": "586ad5152c66dc10b807be83",
    "name": "ALDENHAM STREET",
    "typeGuess": "road",
    "priorityScore": 10,
    "classificationCount": 3,
    "coordinates": {
      "lng": -0.13328433,
      "lat": 51.53221477
    }
  },
  {
    "id": "5805038f2c66dcab3d0839c6",
    "name": "ALDERNEY ROAD",
    "typeGuess": "road",
    "priorityScore": 10,
    "classificationCount": 3,
    "coordinates": {
      "lng": -0.04610181,
      "lat": 51.52303691
    }
  },
  {
    "id": "588ed53e2c66dc811901f52c",
    "name": "ALDERNEY STREET",
    "typeGuess": "road",
    "priorityScore": 10,
    "classificationCount": 3,
    "coordinates": {
      "lng": -0.14547229,
      "lat": 51.49016833
    }
  },
  {
    "id": "57f6b5f12c66dcab3d01dd29",
    "name": "ALDERSGATE STREET",
    "typeGuess": "road",
    "priorityScore": 10,
    "classificationCount": 3,
    "coordinates": {
      "lng": -0.09755731,
      "lat": 51.52013298
    }
  },
  {
    "id": "58716f172c66dc67e200f9fd",
    "name": "ALDERSHOT ROAD",
    "typeGuess": "road",
    "priorityScore": 10,
    "classificationCount": 3,
    "coordinates": {
      "lng": -0.20004988,
      "lat": 51.5409437
    }
  },
  {
    "id": "57fbc5e82c66dcab3d03fa69",
    "name": "ALDFORD STREET",
    "typeGuess": "road",
    "priorityScore": 10,
    "classificationCount": 3,
    "coordinates": {
      "lng": -0.15359402,
      "lat": 51.50860891
    }
  },
  {
    "id": "5866e7a42c66dc10b806942d",
    "name": "ALDRIDGE ROAD VILLAS",
    "typeGuess": "road",
    "priorityScore": 10,
    "classificationCount": 3,
    "coordinates": {
      "lng": -0.20083308,
      "lat": 51.51988597
    }
  },
  {
    "id": "5866eb6f2c66dc10b806956c",
    "name": "ALEXANDER STREET",
    "typeGuess": "road",
    "priorityScore": 10,
    "classificationCount": 3,
    "coordinates": {
      "lng": -0.19264698,
      "lat": 51.51774962
    }
  },
  {
    "id": "586bc4682c66dc10b807e3ef",
    "name": "ALEXANDRA ROAD",
    "typeGuess": "road",
    "priorityScore": 10,
    "classificationCount": 3,
    "coordinates": {
      "lng": -0.18609166,
      "lat": 51.53891511
    }
  },
  {
    "id": "586536922c66dc10b805ce13",
    "name": "ALFRED PLACE",
    "typeGuess": "road",
    "priorityScore": 10,
    "classificationCount": 3,
    "coordinates": {
      "lng": -0.17089963,
      "lat": 51.49501797
    }
  },
  {
    "id": "5866dcc92c66dc10b8068e86",
    "name": "ALFRED PLACE",
    "typeGuess": "road",
    "priorityScore": 10,
    "classificationCount": 3,
    "coordinates": {
      "lng": -0.13321996,
      "lat": 51.52043339
    }
  },
  {
    "id": "586537362c66dc10b805ce86",
    "name": "ALFRED PLACE WEST",
    "typeGuess": "road",
    "priorityScore": 10,
    "classificationCount": 3,
    "coordinates": {
      "lng": -0.17436504,
      "lat": 51.49444352
    }
  },
  {
    "id": "5866e7e42c66dc10b8069443",
    "name": "ALFRED ROAD",
    "typeGuess": "road",
    "priorityScore": 10,
    "classificationCount": 3,
    "coordinates": {
      "lng": -0.19482493,
      "lat": 51.52104757
    }
  },
  {
    "id": "57f535a52c66dcab3d014dab",
    "name": "ALFRED STREET",
    "typeGuess": "road",
    "priorityScore": 10,
    "classificationCount": 3,
    "coordinates": {
      "lng": -0.07505894,
      "lat": 51.49432329
    }
  },
  {
    "id": "57fa05f92c66dcab3d030cb4",
    "name": "ALFRED STREET",
    "typeGuess": "road",
    "priorityScore": 10,
    "classificationCount": 3,
    "coordinates": {
      "lng": -0.10284662,
      "lat": 51.53216805
    }
  },
  {
    "id": "580337a92c66dcab3d074a2f",
    "name": "ALFRED STREET",
    "typeGuess": "road",
    "priorityScore": 10,
    "classificationCount": 3,
    "coordinates": {
      "lng": -0.11500239,
      "lat": 51.54623497
    }
  },
  {
    "id": "586c148a2c66dc10b808154c",
    "name": "ALGERNON ROAD",
    "typeGuess": "road",
    "priorityScore": 10,
    "classificationCount": 3,
    "coordinates": {
      "lng": -0.19770026,
      "lat": 51.53826781
    }
  },
  {
    "id": "5807a76e2c66dc1ce5007257",
    "name": "ALLAS ROAD",
    "typeGuess": "road",
    "priorityScore": 10,
    "classificationCount": 3,
    "coordinates": {
      "lng": -0.04904151,
      "lat": 51.52731569
    }
  },
  {
    "id": "5865977c2c66dc10b80612f1",
    "name": "ALLEN STREET",
    "typeGuess": "road",
    "priorityScore": 10,
    "classificationCount": 3,
    "coordinates": {
      "lng": -0.19523263,
      "lat": 51.49870496
    }
  },
  {
    "id": "593476a62c66dc085a0770a1",
    "name": "ALLINGTON STREET",
    "typeGuess": "road",
    "priorityScore": 10,
    "classificationCount": 3,
    "coordinates": {
      "lng": -0.21227002,
      "lat": 51.53231488
    }
  },
  {
    "id": "5943e7702c66dc085a0ad888",
    "name": "ALLINGTON STREET",
    "typeGuess": "road",
    "priorityScore": 10,
    "classificationCount": 3,
    "coordinates": {
      "lng": -0.21222711,
      "lat": 51.53229486
    }
  },
  {
    "id": "5866d81f2c66dc10b8068c26",
    "name": "ALLSOP PLACE",
    "typeGuess": "road",
    "priorityScore": 10,
    "classificationCount": 3,
    "coordinates": {
      "lng": -0.15739202,
      "lat": 51.5237979
    }
  },
  {
    "id": "586bc1712c66dc10b807e169",
    "name": "ALMA SQUARE",
    "typeGuess": "road",
    "priorityScore": 10,
    "classificationCount": 3,
    "coordinates": {
      "lng": -0.18012643,
      "lat": 51.53154735
    }
  },
  {
    "id": "5807badd2c66dc1ce5007d17",
    "name": "ALMA STREET",
    "typeGuess": "road",
    "priorityScore": 10,
    "classificationCount": 3,
    "coordinates": {
      "lng": -0.08565903,
      "lat": 51.53172088
    }
  },
  {
    "id": "5866e0912c66dc10b80690af",
    "name": "ALPHA PLACE",
    "typeGuess": "road",
    "priorityScore": 10,
    "classificationCount": 3,
    "coordinates": {
      "lng": -0.16761661,
      "lat": 51.52688182
    }
  },
  {
    "id": "57f542e82c66dcab3d0152bc",
    "name": "ALPHA ROAD",
    "typeGuess": "road",
    "priorityScore": 10,
    "classificationCount": 3,
    "coordinates": {
      "lng": -0.02301335,
      "lat": 51.4998671
    }
  },
  {
    "id": "5866e05b2c66dc10b806908e",
    "name": "ALPHA ROAD",
    "typeGuess": "road",
    "priorityScore": 10,
    "classificationCount": 3,
    "coordinates": {
      "lng": -0.1672411,
      "lat": 51.52551344
    }
  },
  {
    "id": "57f1757c2c66dca32201ad4c",
    "name": "ALSCOT ROAD",
    "typeGuess": "road",
    "priorityScore": 10,
    "classificationCount": 3,
    "coordinates": {
      "lng": -0.07454395,
      "lat": 51.49373547
    }
  },
  {
    "id": "57f3a4632c66dcab3d0089fe",
    "name": "ALVEY STREET",
    "typeGuess": "road",
    "priorityScore": 10,
    "classificationCount": 3,
    "coordinates": {
      "lng": -0.08435011,
      "lat": 51.48865856
    }
  },
  {
    "id": "586b80122c66dc10b807cc6f",
    "name": "ALWYNE ROAD",
    "typeGuess": "road",
    "priorityScore": 10,
    "classificationCount": 3,
    "coordinates": {
      "lng": -0.09727836,
      "lat": 51.54274534
    }
  },
  {
    "id": "586b7fbc2c66dc10b807cc63",
    "name": "ALWYNE SQUARE",
    "typeGuess": "road",
    "priorityScore": 10,
    "classificationCount": 3,
    "coordinates": {
      "lng": -0.09663463,
      "lat": 51.54662862
    }
  },
  {
    "id": "586bbc4d2c66dc10b807dd40",
    "name": "AMBERLEY ROAD",
    "typeGuess": "road",
    "priorityScore": 10,
    "classificationCount": 3,
    "coordinates": {
      "lng": -0.1922822,
      "lat": 51.52316374
    }
  },
  {
    "id": "57f176562c66dca32201ae8a",
    "name": "AMELIA STREET",
    "typeGuess": "road",
    "priorityScore": 10,
    "classificationCount": 3,
    "coordinates": {
      "lng": -0.10008931,
      "lat": 51.4891763
    }
  },
  {
    "id": "57fa91de2c66dcab3d0377fb",
    "name": "AMERSHAM ROAD",
    "typeGuess": "road",
    "priorityScore": 10,
    "classificationCount": 3,
    "coordinates": {
      "lng": -0.03298044,
      "lat": 51.4751686
    }
  },
  {
    "id": "580f2df92c66dc1ce503eda2",
    "name": "AMHURST ROAD",
    "typeGuess": "road",
    "priorityScore": 10,
    "classificationCount": 3,
    "coordinates": {
      "lng": -0.05848289,
      "lat": 51.54869023
    }
  },
  {
    "id": "58776ef62c66dc67e202783f",
    "name": "AMHURST ROAD",
    "typeGuess": "road",
    "priorityScore": 10,
    "classificationCount": 3,
    "coordinates": {
      "lng": -0.06470561,
      "lat": 51.55079177
    }
  },
  {
    "id": "5803bbb32c66dcab3d07b62a",
    "name": "AMPTON STREET",
    "typeGuess": "road",
    "priorityScore": 10,
    "classificationCount": 3,
    "coordinates": {
      "lng": -0.11817813,
      "lat": 51.52723559
    }
  },
  {
    "id": "5807b6232c66dc1ce5007979",
    "name": "AMWELL STREET",
    "typeGuess": "road",
    "priorityScore": 10,
    "classificationCount": 3,
    "coordinates": {
      "lng": -0.11107564,
      "lat": 51.53068637
    }
  },
  {
    "id": "58678a0d2c66dc10b806a980",
    "name": "ANLEY ROAD",
    "typeGuess": "road",
    "priorityScore": 10,
    "classificationCount": 3,
    "coordinates": {
      "lng": -0.22157192,
      "lat": 51.5011561
    }
  },
  {
    "id": "57fa045a2c66dcab3d030bef",
    "name": "ANN STREET",
    "typeGuess": "road",
    "priorityScore": 10,
    "classificationCount": 3,
    "coordinates": {
      "lng": -0.0942421,
      "lat": 51.53541824
    }
  },
  {
    "id": "5808e51c2c66dc1ce500f5a6",
    "name": "ANNIS ROAD",
    "typeGuess": "road",
    "priorityScore": 10,
    "classificationCount": 3,
    "coordinates": {
      "lng": -0.03767967,
      "lat": 51.54371619
    }
  },
  {
    "id": "5866987c2c66dc10b8065b11",
    "name": "ANSELM ROAD",
    "typeGuess": "road",
    "priorityScore": 10,
    "classificationCount": 3,
    "coordinates": {
      "lng": -0.20081162,
      "lat": 51.48341405
    }
  },
  {
    "id": "5807aa042c66dc1ce50073c1",
    "name": "ANTILL ROAD",
    "typeGuess": "road",
    "priorityScore": 10,
    "classificationCount": 3,
    "coordinates": {
      "lng": -0.03654242,
      "lat": 51.52851715
    }
  },
  {
    "id": "58776eed2c66dc67e2027838",
    "name": "ANTON STREET",
    "typeGuess": "road",
    "priorityScore": 10,
    "classificationCount": 3,
    "coordinates": {
      "lng": -0.06399751,
      "lat": 51.550645
    }
  },
  {
    "id": "586bc6322c66dc10b807e528",
    "name": "APPLEFORD ROAD",
    "typeGuess": "road",
    "priorityScore": 10,
    "classificationCount": 3,
    "coordinates": {
      "lng": -0.20869732,
      "lat": 51.5241784
    }
  },
  {
    "id": "57ff67fe2c66dcab3d057969",
    "name": "APPOLD STREET",
    "typeGuess": "road",
    "priorityScore": 10,
    "classificationCount": 3,
    "coordinates": {
      "lng": -0.08271933,
      "lat": 51.52001949
    }
  },
  {
    "id": "5807a9f52c66dc1ce50073b3",
    "name": "ARBERY ROAD",
    "typeGuess": "road",
    "priorityScore": 10,
    "classificationCount": 3,
    "coordinates": {
      "lng": -0.03734708,
      "lat": 51.52941822
    }
  },
  {
    "id": "5991fe072c66dc085a18931d",
    "name": "ARBERY ROAD",
    "typeGuess": "road",
    "priorityScore": 10,
    "classificationCount": 3,
    "coordinates": {
      "lng": -0.03733099,
      "lat": 51.52941738
    }
  },
  {
    "id": "5803b2222c66dcab3d07abe3",
    "name": "ARBOUR SQUARE",
    "typeGuess": "road",
    "priorityScore": 10,
    "classificationCount": 3,
    "coordinates": {
      "lng": -0.04832268,
      "lat": 51.51445143
    }
  },
  {
    "id": "580684fd2c66dcab3d09053a",
    "name": "ARCADIA STREET",
    "typeGuess": "road",
    "priorityScore": 10,
    "classificationCount": 3,
    "coordinates": {
      "lng": -0.02287924,
      "lat": 51.51492881
    }
  },
  {
    "id": "58669a132c66dc10b8065ca5",
    "name": "ARCHEL ROAD",
    "typeGuess": "road",
    "priorityScore": 10,
    "classificationCount": 3,
    "coordinates": {
      "lng": -0.20518899,
      "lat": 51.48642721
    }
  },
  {
    "id": "5866e6eb2c66dc10b80693da",
    "name": "ARCHER STREET",
    "typeGuess": "road",
    "priorityScore": 10,
    "classificationCount": 3,
    "coordinates": {
      "lng": -0.20355821,
      "lat": 51.5134232
    }
  },
  {
    "id": "5803bb762c66dcab3d07b5de",
    "name": "ARGYLE SQUARE",
    "typeGuess": "road",
    "priorityScore": 10,
    "classificationCount": 3,
    "coordinates": {
      "lng": -0.12226582,
      "lat": 51.52916459
    }
  },
  {
    "id": "5803bdf12c66dcab3d07b85c",
    "name": "ARGYLE STREET",
    "typeGuess": "road",
    "priorityScore": 10,
    "classificationCount": 3,
    "coordinates": {
      "lng": -0.12434721,
      "lat": 51.52949164
    }
  },
  {
    "id": "5867a9692c66dc10b806ad96",
    "name": "ARGYLL ROAD",
    "typeGuess": "road",
    "priorityScore": 10,
    "classificationCount": 3,
    "coordinates": {
      "lng": -0.19661665,
      "lat": 51.50166368
    }
  },
  {
    "id": "57fba6a12c66dcab3d03da12",
    "name": "ARGYLL STREET",
    "typeGuess": "road",
    "priorityScore": 10,
    "classificationCount": 3,
    "coordinates": {
      "lng": -0.14122367,
      "lat": 51.51501895
    }
  },
  {
    "id": "580288182c66dcab3d071558",
    "name": "ARKWRIGHT ROAD",
    "typeGuess": "road",
    "priorityScore": 10,
    "classificationCount": 3,
    "coordinates": {
      "lng": -0.18355966,
      "lat": 51.55085181
    }
  },
  {
    "id": "586ad0172c66dc10b807bc2d",
    "name": "ARLINGTON ROAD",
    "typeGuess": "road",
    "priorityScore": 10,
    "classificationCount": 3,
    "coordinates": {
      "lng": -0.14391661,
      "lat": 51.53848802
    }
  },
  {
    "id": "57fa04fa2c66dcab3d030c3e",
    "name": "ARLINGTON STREET",
    "typeGuess": "road",
    "priorityScore": 10,
    "classificationCount": 3,
    "coordinates": {
      "lng": -0.0944674,
      "lat": 51.53424366
    }
  },
  {
    "id": "5807adde2c66dc1ce5007506",
    "name": "ARMAGH ROAD",
    "typeGuess": "road",
    "priorityScore": 10,
    "classificationCount": 3,
    "coordinates": {
      "lng": -0.03029823,
      "lat": 51.53629248
    }
  },
  {
    "id": "5807aac72c66dc1ce5007428",
    "name": "ARMAGH ROAD SOUTH",
    "typeGuess": "road",
    "priorityScore": 10,
    "classificationCount": 3,
    "coordinates": {
      "lng": -0.02820611,
      "lat": 51.5332092
    }
  },
  {
    "id": "5991f8b12c66dc085a18923a",
    "name": "ARMAGH ROAD SOUTH",
    "typeGuess": "road",
    "priorityScore": 10,
    "classificationCount": 3,
    "coordinates": {
      "lng": -0.02820075,
      "lat": 51.53320837
    }
  },
  {
    "id": "5867ad832c66dc10b806af87",
    "name": "ARTESIAN ROAD",
    "typeGuess": "road",
    "priorityScore": 10,
    "classificationCount": 3,
    "coordinates": {
      "lng": -0.19855857,
      "lat": 51.51561317
    }
  },
  {
    "id": "5808e7e32c66dc1ce500f7bc",
    "name": "ARTHUR STREET",
    "typeGuess": "road",
    "priorityScore": 10,
    "classificationCount": 3,
    "coordinates": {
      "lng": -0.04808128,
      "lat": 51.54489052
    }
  },